{
"type": "FeatureCollection",
"features": [
{ "type": "Feature", "properties": { "stop_id": "S0904000001", "stop_name": "鹿沼駅", "stop_lat": 36.5704927926514, "stop_lon": 139.76202776164499, "zone_id": "0", "location_type": 1, "parent_station": null, "stop_code": null, "stop_desc": null, "stop_url": null, "stop_timezone": null, "wheelchair_boarding": null, "platform_code": null }, "geometry": { "type": "Point", "coordinates": [ 139.762027761644987, 36.5704927926514 ] } },
{ "type": "Feature", "properties": { "stop_id": "S0904000002", "stop_name": "府所", "stop_lat": 36.568505068283898, "stop_lon": 139.75688939102099, "zone_id": "0", "location_type": 1, "parent_station": null, "stop_code": null, "stop_desc": null, "stop_url": null, "stop_timezone": null, "wheelchair_boarding": null, "platform_code": null }, "geometry": { "type": "Point", "coordinates": [ 139.756889391020991, 36.568505068283898 ] } },
{ "type": "Feature", "properties": { "stop_id": "S0904000003", "stop_name": "朝日町", "stop_lat": 36.567489480957498, "stop_lon": 139.75282727513999, "zone_id": "0", "location_type": 1, "parent_station": null, "stop_code": null, "stop_desc": null, "stop_url": null, "stop_timezone": null, "wheelchair_boarding": null, "platform_code": null }, "geometry": { "type": "Point", "coordinates": [ 139.752827275139992, 36.567489480957498 ] } },
{ "type": "Feature", "properties": { "stop_id": "S0904000004", "stop_name": "上田町", "stop_lat": 36.567194332399197, "stop_lon": 139.75046637369101, "zone_id": "0", "location_type": 1, "parent_station": null, "stop_code": null, "stop_desc": null, "stop_url": null, "stop_timezone": null, "wheelchair_boarding": null, "platform_code": null }, "geometry": { "type": "Point", "coordinates": [ 139.750466373691012, 36.567194332399197 ] } },
{ "type": "Feature", "properties": { "stop_id": "S0904000005", "stop_name": "天神町", "stop_lat": 36.567142216433801, "stop_lon": 139.74827905774501, "zone_id": "0", "location_type": 1, "parent_station": null, "stop_code": null, "stop_desc": null, "stop_url": null, "stop_timezone": null, "wheelchair_boarding": null, "platform_code": null }, "geometry": { "type": "Point", "coordinates": [ 139.748279057745009, 36.567142216433801 ] } },
{ "type": "Feature", "properties": { "stop_id": "S0904000006", "stop_name": "久保町", "stop_lat": 36.566187435614999, "stop_lon": 139.74702920550899, "zone_id": "0", "location_type": 1, "parent_station": null, "stop_code": null, "stop_desc": null, "stop_url": null, "stop_timezone": null, "wheelchair_boarding": null, "platform_code": null }, "geometry": { "type": "Point", "coordinates": [ 139.747029205508994, 36.566187435614999 ] } },
{ "type": "Feature", "properties": { "stop_id": "S0904000009", "stop_name": "上都賀病院", "stop_lat": 36.560936321209503, "stop_lon": 139.750466661828, "zone_id": "0", "location_type": 1, "parent_station": null, "stop_code": null, "stop_desc": null, "stop_url": null, "stop_timezone": null, "wheelchair_boarding": null, "platform_code": null }, "geometry": { "type": "Point", "coordinates": [ 139.750466661828, 36.560936321209503 ] } },
{ "type": "Feature", "properties": { "stop_id": "S0904000010", "stop_name": "万町", "stop_lat": 36.5586188977449, "stop_lon": 139.75258464819601, "zone_id": "0", "location_type": 1, "parent_station": null, "stop_code": null, "stop_desc": null, "stop_url": null, "stop_timezone": null, "wheelchair_boarding": null, "platform_code": null }, "geometry": { "type": "Point", "coordinates": [ 139.752584648196006, 36.5586188977449 ] } },
{ "type": "Feature", "properties": { "stop_id": "S0904000011", "stop_name": "鹿沼高校", "stop_lat": 36.557377674676196, "stop_lon": 139.75050154501699, "zone_id": "0", "location_type": 1, "parent_station": null, "stop_code": null, "stop_desc": null, "stop_url": null, "stop_timezone": null, "wheelchair_boarding": null, "platform_code": null }, "geometry": { "type": "Point", "coordinates": [ 139.750501545016988, 36.557377674676196 ] } },
{ "type": "Feature", "properties": { "stop_id": "S0904000012", "stop_name": "鳥居跡町", "stop_lat": 36.557230057949802, "stop_lon": 139.74689074057699, "zone_id": "0", "location_type": 1, "parent_station": null, "stop_code": null, "stop_desc": null, "stop_url": null, "stop_timezone": null, "wheelchair_boarding": null, "platform_code": null }, "geometry": { "type": "Point", "coordinates": [ 139.746890740576987, 36.557230057949802 ] } },
{ "type": "Feature", "properties": { "stop_id": "S0904000013", "stop_name": "鹿沼商工入口", "stop_lat": 36.554417858140297, "stop_lon": 139.74685615072099, "zone_id": "0", "location_type": 1, "parent_station": null, "stop_code": null, "stop_desc": null, "stop_url": null, "stop_timezone": null, "wheelchair_boarding": null, "platform_code": null }, "geometry": { "type": "Point", "coordinates": [ 139.746856150720987, 36.554417858140297 ] } },
{ "type": "Feature", "properties": { "stop_id": "S0904000014", "stop_name": "鹿沼営業所", "stop_lat": 36.553081191917798, "stop_lon": 139.746647896231, "zone_id": "0", "location_type": 1, "parent_station": null, "stop_code": null, "stop_desc": null, "stop_url": null, "stop_timezone": null, "wheelchair_boarding": null, "platform_code": null }, "geometry": { "type": "Point", "coordinates": [ 139.746647896230996, 36.553081191917798 ] } },
{ "type": "Feature", "properties": { "stop_id": "S0904000015", "stop_name": "おもちゃのまち駅", "stop_lat": 36.466399191904898, "stop_lon": 139.82890200097199, "zone_id": "0", "location_type": 1, "parent_station": null, "stop_code": null, "stop_desc": null, "stop_url": null, "stop_timezone": null, "wheelchair_boarding": null, "platform_code": null }, "geometry": { "type": "Point", "coordinates": [ 139.828902000971993, 36.466399191904898 ] } },
{ "type": "Feature", "properties": { "stop_id": "S0904000016", "stop_name": "助谷入口", "stop_lat": 36.466798424435297, "stop_lon": 139.827166015649, "zone_id": "0", "location_type": 1, "parent_station": null, "stop_code": null, "stop_desc": null, "stop_url": null, "stop_timezone": null, "wheelchair_boarding": null, "platform_code": null }, "geometry": { "type": "Point", "coordinates": [ 139.827166015648999, 36.466798424435297 ] } },
{ "type": "Feature", "properties": { "stop_id": "S0904000017", "stop_name": "獨協医大入口", "stop_lat": 36.470582748551699, "stop_lon": 139.827547754134, "zone_id": "0", "location_type": 1, "parent_station": null, "stop_code": null, "stop_desc": null, "stop_url": null, "stop_timezone": null, "wheelchair_boarding": null, "platform_code": null }, "geometry": { "type": "Point", "coordinates": [ 139.827547754134002, 36.470582748551699 ] } },
{ "type": "Feature", "properties": { "stop_id": "S0904000018", "stop_name": "獨協医大病院前", "stop_lat": 36.471381236048899, "stop_lon": 139.82536039902399, "zone_id": "0", "location_type": 1, "parent_station": null, "stop_code": null, "stop_desc": null, "stop_url": null, "stop_timezone": null, "wheelchair_boarding": null, "platform_code": null }, "geometry": { "type": "Point", "coordinates": [ 139.825360399023992, 36.471381236048899 ] } },
{ "type": "Feature", "properties": { "stop_id": "S0904000019", "stop_name": "宇都宮グリーンタウン", "stop_lat": 36.640912564699597, "stop_lon": 139.87406382566101, "zone_id": "0", "location_type": 1, "parent_station": null, "stop_code": null, "stop_desc": null, "stop_url": null, "stop_timezone": null, "wheelchair_boarding": null, "platform_code": null }, "geometry": { "type": "Point", "coordinates": [ 139.874063825661011, 36.640912564699597 ] } },
{ "type": "Feature", "properties": { "stop_id": "S0904000020", "stop_name": "グリーンタウン西", "stop_lat": 36.637327870795403, "stop_lon": 139.873612639306, "zone_id": "0", "location_type": 1, "parent_station": null, "stop_code": null, "stop_desc": null, "stop_url": null, "stop_timezone": null, "wheelchair_boarding": null, "platform_code": null }, "geometry": { "type": "Point", "coordinates": [ 139.873612639306003, 36.637327870795403 ] } },
{ "type": "Feature", "properties": { "stop_id": "S0904000021", "stop_name": "グリーンタウン中央", "stop_lat": 36.635869744367497, "stop_lon": 139.87652913090301, "zone_id": "0", "location_type": 1, "parent_station": null, "stop_code": null, "stop_desc": null, "stop_url": null, "stop_timezone": null, "wheelchair_boarding": null, "platform_code": null }, "geometry": { "type": "Point", "coordinates": [ 139.876529130903009, 36.635869744367497 ] } },
{ "type": "Feature", "properties": { "stop_id": "S0904000022", "stop_name": "グリーンタウン東", "stop_lat": 36.637683853755199, "stop_lon": 139.88038289398301, "zone_id": "0", "location_type": 1, "parent_station": null, "stop_code": null, "stop_desc": null, "stop_url": null, "stop_timezone": null, "wheelchair_boarding": null, "platform_code": null }, "geometry": { "type": "Point", "coordinates": [ 139.880382893983011, 36.637683853755199 ] } },
{ "type": "Feature", "properties": { "stop_id": "S0904000023", "stop_name": "宇都宮グリーンタウン入口", "stop_lat": 36.6395239523005, "stop_lon": 139.88138967008601, "zone_id": "0", "location_type": 1, "parent_station": null, "stop_code": null, "stop_desc": null, "stop_url": null, "stop_timezone": null, "wheelchair_boarding": null, "platform_code": null }, "geometry": { "type": "Point", "coordinates": [ 139.881389670086008, 36.6395239523005 ] } },
{ "type": "Feature", "properties": { "stop_id": "S0904000024", "stop_name": "立伏", "stop_lat": 36.642075762688499, "stop_lon": 139.88138955259299, "zone_id": "0", "location_type": 1, "parent_station": null, "stop_code": null, "stop_desc": null, "stop_url": null, "stop_timezone": null, "wheelchair_boarding": null, "platform_code": null }, "geometry": { "type": "Point", "coordinates": [ 139.881389552592992, 36.642075762688499 ] } },
{ "type": "Feature", "properties": { "stop_id": "S0904000025", "stop_name": "太陽ヶ丘団地入口", "stop_lat": 36.6420933735943, "stop_lon": 139.895798077389, "zone_id": "0", "location_type": 1, "parent_station": null, "stop_code": null, "stop_desc": null, "stop_url": null, "stop_timezone": null, "wheelchair_boarding": null, "platform_code": null }, "geometry": { "type": "Point", "coordinates": [ 139.895798077389003, 36.6420933735943 ] } },
{ "type": "Feature", "properties": { "stop_id": "S0904000026", "stop_name": "自由ヶ丘団地入口", "stop_lat": 36.640973809020103, "stop_lon": 139.90194345190699, "zone_id": "0", "location_type": 1, "parent_station": null, "stop_code": null, "stop_desc": null, "stop_url": null, "stop_timezone": null, "wheelchair_boarding": null, "platform_code": null }, "geometry": { "type": "Point", "coordinates": [ 139.901943451906988, 36.640973809020103 ] } },
{ "type": "Feature", "properties": { "stop_id": "S0904000027", "stop_name": "田原小学校", "stop_lat": 36.640166655236399, "stop_lon": 139.90489463287, "zone_id": "0", "location_type": 1, "parent_station": null, "stop_code": null, "stop_desc": null, "stop_url": null, "stop_timezone": null, "wheelchair_boarding": null, "platform_code": null }, "geometry": { "type": "Point", "coordinates": [ 139.904894632869997, 36.640166655236399 ] } },
{ "type": "Feature", "properties": { "stop_id": "S0904000028", "stop_name": "田原中学校前", "stop_lat": 36.637597472253397, "stop_lon": 139.90413092570901, "zone_id": "0", "location_type": 1, "parent_station": null, "stop_code": null, "stop_desc": null, "stop_url": null, "stop_timezone": null, "wheelchair_boarding": null, "platform_code": null }, "geometry": { "type": "Point", "coordinates": [ 139.904130925709012, 36.637597472253397 ] } },
{ "type": "Feature", "properties": { "stop_id": "S0904000029", "stop_name": "下田原交差点", "stop_lat": 36.634004079317499, "stop_lon": 139.902568720912, "zone_id": "0", "location_type": 1, "parent_station": null, "stop_code": null, "stop_desc": null, "stop_url": null, "stop_timezone": null, "wheelchair_boarding": null, "platform_code": null }, "geometry": { "type": "Point", "coordinates": [ 139.902568720912001, 36.634004079317499 ] } },
{ "type": "Feature", "properties": { "stop_id": "S0904000030", "stop_name": "下田原", "stop_lat": 36.628883107776602, "stop_lon": 139.90305502743999, "zone_id": "0", "location_type": 1, "parent_station": null, "stop_code": null, "stop_desc": null, "stop_url": null, "stop_timezone": null, "wheelchair_boarding": null, "platform_code": null }, "geometry": { "type": "Point", "coordinates": [ 139.90305502743999, 36.628883107776602 ] } },
{ "type": "Feature", "properties": { "stop_id": "S0904000031", "stop_name": "山田橋", "stop_lat": 36.622303958264702, "stop_lon": 139.90350668176799, "zone_id": "0", "location_type": 1, "parent_station": null, "stop_code": null, "stop_desc": null, "stop_url": null, "stop_timezone": null, "wheelchair_boarding": null, "platform_code": null }, "geometry": { "type": "Point", "coordinates": [ 139.903506681767993, 36.622303958264702 ] } },
{ "type": "Feature", "properties": { "stop_id": "S0904000032", "stop_name": "塚原", "stop_lat": 36.616358397886998, "stop_lon": 139.902604252711, "zone_id": "0", "location_type": 1, "parent_station": null, "stop_code": null, "stop_desc": null, "stop_url": null, "stop_timezone": null, "wheelchair_boarding": null, "platform_code": null }, "geometry": { "type": "Point", "coordinates": [ 139.902604252711001, 36.616358397886998 ] } },
{ "type": "Feature", "properties": { "stop_id": "S0904000033", "stop_name": "北山霊園前", "stop_lat": 36.611072463099497, "stop_lon": 139.900208861712, "zone_id": "0", "location_type": 1, "parent_station": null, "stop_code": null, "stop_desc": null, "stop_url": null, "stop_timezone": null, "wheelchair_boarding": null, "platform_code": null }, "geometry": { "type": "Point", "coordinates": [ 139.900208861712002, 36.611072463099497 ] } },
{ "type": "Feature", "properties": { "stop_id": "S0904000034", "stop_name": "岩本", "stop_lat": 36.606428830424903, "stop_lon": 139.89836895056101, "zone_id": "0", "location_type": 1, "parent_station": null, "stop_code": null, "stop_desc": null, "stop_url": null, "stop_timezone": null, "wheelchair_boarding": null, "platform_code": null }, "geometry": { "type": "Point", "coordinates": [ 139.898368950561007, 36.606428830424903 ] } },
{ "type": "Feature", "properties": { "stop_id": "S0904000035", "stop_name": "関沢", "stop_lat": 36.602783374279298, "stop_lon": 139.897640012294, "zone_id": "0", "location_type": 1, "parent_station": null, "stop_code": null, "stop_desc": null, "stop_url": null, "stop_timezone": null, "wheelchair_boarding": null, "platform_code": null }, "geometry": { "type": "Point", "coordinates": [ 139.897640012294005, 36.602783374279298 ] } },
{ "type": "Feature", "properties": { "stop_id": "S0904000036", "stop_name": "豊郷中学校前", "stop_lat": 36.6005093204502, "stop_lon": 139.89812618774101, "zone_id": "0", "location_type": 1, "parent_station": null, "stop_code": null, "stop_desc": null, "stop_url": null, "stop_timezone": null, "wheelchair_boarding": null, "platform_code": null }, "geometry": { "type": "Point", "coordinates": [ 139.898126187741013, 36.6005093204502 ] } },
{ "type": "Feature", "properties": { "stop_id": "S0904000037", "stop_name": "豊郷中央小前", "stop_lat": 36.596568742427401, "stop_lon": 139.89656399893099, "zone_id": "0", "location_type": 1, "parent_station": null, "stop_code": null, "stop_desc": null, "stop_url": null, "stop_timezone": null, "wheelchair_boarding": null, "platform_code": null }, "geometry": { "type": "Point", "coordinates": [ 139.896563998930986, 36.596568742427401 ] } },
{ "type": "Feature", "properties": { "stop_id": "S0904000038", "stop_name": "北高西", "stop_lat": 36.592619489628603, "stop_lon": 139.89527956523, "zone_id": "0", "location_type": 1, "parent_station": null, "stop_code": null, "stop_desc": null, "stop_url": null, "stop_timezone": null, "wheelchair_boarding": null, "platform_code": null }, "geometry": { "type": "Point", "coordinates": [ 139.895279565229998, 36.592619489628603 ] } },
{ "type": "Feature", "properties": { "stop_id": "S0904000039", "stop_name": "岩曽西", "stop_lat": 36.587021090082203, "stop_lon": 139.89298834663501, "zone_id": "0", "location_type": 1, "parent_station": null, "stop_code": null, "stop_desc": null, "stop_url": null, "stop_timezone": null, "wheelchair_boarding": null, "platform_code": null }, "geometry": { "type": "Point", "coordinates": [ 139.892988346635008, 36.587021090082203 ] } },
{ "type": "Feature", "properties": { "stop_id": "S0904000040", "stop_name": "富士見が丘入口", "stop_lat": 36.582221222299403, "stop_lon": 139.89104428466101, "zone_id": "0", "location_type": 1, "parent_station": null, "stop_code": null, "stop_desc": null, "stop_url": null, "stop_timezone": null, "wheelchair_boarding": null, "platform_code": null }, "geometry": { "type": "Point", "coordinates": [ 139.891044284661007, 36.582221222299403 ] } },
{ "type": "Feature", "properties": { "stop_id": "S0904000041", "stop_name": "山本", "stop_lat": 36.580337735926797, "stop_lon": 139.89062773931701, "zone_id": "0", "location_type": 1, "parent_station": null, "stop_code": null, "stop_desc": null, "stop_url": null, "stop_timezone": null, "wheelchair_boarding": null, "platform_code": null }, "geometry": { "type": "Point", "coordinates": [ 139.890627739317011, 36.580337735926797 ] } },
{ "type": "Feature", "properties": { "stop_id": "S0904000042", "stop_name": "上大曽", "stop_lat": 36.577117584544403, "stop_lon": 139.89007237816, "zone_id": "0", "location_type": 1, "parent_station": null, "stop_code": null, "stop_desc": null, "stop_url": null, "stop_timezone": null, "wheelchair_boarding": null, "platform_code": null }, "geometry": { "type": "Point", "coordinates": [ 139.890072378159999, 36.577117584544403 ] } },
{ "type": "Feature", "properties": { "stop_id": "S0904000043", "stop_name": "大曽十文字", "stop_lat": 36.574522375414197, "stop_lon": 139.890037778313, "zone_id": "0", "location_type": 1, "parent_station": null, "stop_code": null, "stop_desc": null, "stop_url": null, "stop_timezone": null, "wheelchair_boarding": null, "platform_code": null }, "geometry": { "type": "Point", "coordinates": [ 139.890037778313001, 36.574522375414197 ] } },
{ "type": "Feature", "properties": { "stop_id": "S0904000044", "stop_name": "宇商高校前", "stop_lat": 36.5706772999714, "stop_lon": 139.890003236013, "zone_id": "0", "location_type": 1, "parent_station": null, "stop_code": null, "stop_desc": null, "stop_url": null, "stop_timezone": null, "wheelchair_boarding": null, "platform_code": null }, "geometry": { "type": "Point", "coordinates": [ 139.890003236013001, 36.5706772999714 ] } },
{ "type": "Feature", "properties": { "stop_id": "S0904000045", "stop_name": "大曽一丁目", "stop_lat": 36.567830379227701, "stop_lon": 139.88982977039899, "zone_id": "0", "location_type": 1, "parent_station": null, "stop_code": null, "stop_desc": null, "stop_url": null, "stop_timezone": null, "wheelchair_boarding": null, "platform_code": null }, "geometry": { "type": "Point", "coordinates": [ 139.88982977039899, 36.567830379227701 ] } },
{ "type": "Feature", "properties": { "stop_id": "S0904000046", "stop_name": "東校西", "stop_lat": 36.566554473427303, "stop_lon": 139.88979510980701, "zone_id": "0", "location_type": 1, "parent_station": null, "stop_code": null, "stop_desc": null, "stop_url": null, "stop_timezone": null, "wheelchair_boarding": null, "platform_code": null }, "geometry": { "type": "Point", "coordinates": [ 139.889795109807011, 36.566554473427303 ] } },
{ "type": "Feature", "properties": { "stop_id": "S0904000047", "stop_name": "塙田十文字", "stop_lat": 36.564401919825201, "stop_lon": 139.88944801552799, "zone_id": "0", "location_type": 1, "parent_station": null, "stop_code": null, "stop_desc": null, "stop_url": null, "stop_timezone": null, "wheelchair_boarding": null, "platform_code": null }, "geometry": { "type": "Point", "coordinates": [ 139.889448015527989, 36.564401919825201 ] } },
{ "type": "Feature", "properties": { "stop_id": "S0904000048", "stop_name": "宮島町十文字", "stop_lat": 36.560851937152897, "stop_lon": 139.88858019551, "zone_id": "0", "location_type": 1, "parent_station": null, "stop_code": null, "stop_desc": null, "stop_url": null, "stop_timezone": null, "wheelchair_boarding": null, "platform_code": null }, "geometry": { "type": "Point", "coordinates": [ 139.888580195510002, 36.560851937152897 ] } },
{ "type": "Feature", "properties": { "stop_id": "S0904000049", "stop_name": "大工町", "stop_lat": 36.560391955721698, "stop_lon": 139.890802254373, "zone_id": "0", "location_type": 1, "parent_station": null, "stop_code": null, "stop_desc": null, "stop_url": null, "stop_timezone": null, "wheelchair_boarding": null, "platform_code": null }, "geometry": { "type": "Point", "coordinates": [ 139.890802254373, 36.560391955721698 ] } },
{ "type": "Feature", "properties": { "stop_id": "S0904000050", "stop_name": "上河原", "stop_lat": 36.559905940260201, "stop_lon": 139.89330206914499, "zone_id": "0", "location_type": 1, "parent_station": null, "stop_code": null, "stop_desc": null, "stop_url": null, "stop_timezone": null, "wheelchair_boarding": null, "platform_code": null }, "geometry": { "type": "Point", "coordinates": [ 139.893302069144994, 36.559905940260201 ] } },
{ "type": "Feature", "properties": { "stop_id": "S0904000051", "stop_name": "宮の橋", "stop_lat": 36.559732376217099, "stop_lon": 139.89493388605999, "zone_id": "0", "location_type": 1, "parent_station": null, "stop_code": null, "stop_desc": null, "stop_url": null, "stop_timezone": null, "wheelchair_boarding": null, "platform_code": null }, "geometry": { "type": "Point", "coordinates": [ 139.894933886059988, 36.559732376217099 ] } },
{ "type": "Feature", "properties": { "stop_id": "S0904000052", "stop_name": "宇都宮駅西口", "stop_lat": 36.559176928589302, "stop_lon": 139.89771145873999, "zone_id": "0", "location_type": 1, "parent_station": null, "stop_code": null, "stop_desc": null, "stop_url": null, "stop_timezone": null, "wheelchair_boarding": null, "platform_code": null }, "geometry": { "type": "Point", "coordinates": [ 139.897711458739991, 36.559176928589302 ] } },
{ "type": "Feature", "properties": { "stop_id": "S0904000053", "stop_name": "馬場町", "stop_lat": 36.561146997784697, "stop_lon": 139.88590679283601, "zone_id": "0", "location_type": 1, "parent_station": null, "stop_code": null, "stop_desc": null, "stop_url": null, "stop_timezone": null, "wheelchair_boarding": null, "platform_code": null }, "geometry": { "type": "Point", "coordinates": [ 139.88590679283601, 36.561146997784697 ] } },
{ "type": "Feature", "properties": { "stop_id": "S0904000054", "stop_name": "県庁前（栃木）", "stop_lat": 36.561537531283498, "stop_lon": 139.88305978907101, "zone_id": "0", "location_type": 1, "parent_station": null, "stop_code": null, "stop_desc": null, "stop_url": null, "stop_timezone": null, "wheelchair_boarding": null, "platform_code": null }, "geometry": { "type": "Point", "coordinates": [ 139.883059789071012, 36.561537531283498 ] } },
{ "type": "Feature", "properties": { "stop_id": "S0904000055", "stop_name": "東武駅前", "stop_lat": 36.561667684456602, "stop_lon": 139.88069886804001, "zone_id": "0", "location_type": 1, "parent_station": null, "stop_code": null, "stop_desc": null, "stop_url": null, "stop_timezone": null, "wheelchair_boarding": null, "platform_code": null }, "geometry": { "type": "Point", "coordinates": [ 139.880698868040014, 36.561667684456602 ] } },
{ "type": "Feature", "properties": { "stop_id": "S0904000056", "stop_name": "伝馬町", "stop_lat": 36.5618412145419, "stop_lon": 139.87712276815199, "zone_id": "0", "location_type": 1, "parent_station": null, "stop_code": null, "stop_desc": null, "stop_url": null, "stop_timezone": null, "wheelchair_boarding": null, "platform_code": null }, "geometry": { "type": "Point", "coordinates": [ 139.877122768151992, 36.5618412145419 ] } },
{ "type": "Feature", "properties": { "stop_id": "S0904000057", "stop_name": "裁判所前（宇都宮市）", "stop_lat": 36.562023447903599, "stop_lon": 139.874900722078, "zone_id": "0", "location_type": 1, "parent_station": null, "stop_code": null, "stop_desc": null, "stop_url": null, "stop_timezone": null, "wheelchair_boarding": null, "platform_code": null }, "geometry": { "type": "Point", "coordinates": [ 139.874900722077996, 36.562023447903599 ] } },
{ "type": "Feature", "properties": { "stop_id": "S0904000058", "stop_name": "新川", "stop_lat": 36.562700409099001, "stop_lon": 139.87205370512601, "zone_id": "0", "location_type": 1, "parent_station": null, "stop_code": null, "stop_desc": null, "stop_url": null, "stop_timezone": null, "wheelchair_boarding": null, "platform_code": null }, "geometry": { "type": "Point", "coordinates": [ 139.872053705126007, 36.562700409099001 ] } },
{ "type": "Feature", "properties": { "stop_id": "S0904000059", "stop_name": "桜小学校入口", "stop_lat": 36.564254012032201, "stop_lon": 139.86917192847201, "zone_id": "0", "location_type": 1, "parent_station": null, "stop_code": null, "stop_desc": null, "stop_url": null, "stop_timezone": null, "wheelchair_boarding": null, "platform_code": null }, "geometry": { "type": "Point", "coordinates": [ 139.869171928472014, 36.564254012032201 ] } },
{ "type": "Feature", "properties": { "stop_id": "S0904000060", "stop_name": "桜通十文字", "stop_lat": 36.565200065318997, "stop_lon": 139.86767895334401, "zone_id": "0", "location_type": 1, "parent_station": null, "stop_code": null, "stop_desc": null, "stop_url": null, "stop_timezone": null, "wheelchair_boarding": null, "platform_code": null }, "geometry": { "type": "Point", "coordinates": [ 139.867678953344011, 36.565200065318997 ] } },
{ "type": "Feature", "properties": { "stop_id": "S0904000061", "stop_name": "関東自動車整備前", "stop_lat": 36.567482748445002, "stop_lon": 139.86431107237701, "zone_id": "0", "location_type": 1, "parent_station": null, "stop_code": null, "stop_desc": null, "stop_url": null, "stop_timezone": null, "wheelchair_boarding": null, "platform_code": null }, "geometry": { "type": "Point", "coordinates": [ 139.864311072377006, 36.567482748445002 ] } },
{ "type": "Feature", "properties": { "stop_id": "S0904000062", "stop_name": "作新学院前", "stop_lat": 36.569600523505898, "stop_lon": 139.86122095371499, "zone_id": "0", "location_type": 1, "parent_station": null, "stop_code": null, "stop_desc": null, "stop_url": null, "stop_timezone": null, "wheelchair_boarding": null, "platform_code": null }, "geometry": { "type": "Point", "coordinates": [ 139.861220953714991, 36.569600523505898 ] } },
{ "type": "Feature", "properties": { "stop_id": "S0904000063", "stop_name": "陽西中西", "stop_lat": 36.572160950456698, "stop_lon": 139.85761002458901, "zone_id": "0", "location_type": 1, "parent_station": null, "stop_code": null, "stop_desc": null, "stop_url": null, "stop_timezone": null, "wheelchair_boarding": null, "platform_code": null }, "geometry": { "type": "Point", "coordinates": [ 139.857610024589007, 36.572160950456698 ] } },
{ "type": "Feature", "properties": { "stop_id": "S0904000064", "stop_name": "東中丸", "stop_lat": 36.5739662680352, "stop_lon": 139.85504071039401, "zone_id": "0", "location_type": 1, "parent_station": null, "stop_code": null, "stop_desc": null, "stop_url": null, "stop_timezone": null, "wheelchair_boarding": null, "platform_code": null }, "geometry": { "type": "Point", "coordinates": [ 139.855040710394007, 36.5739662680352 ] } },
{ "type": "Feature", "properties": { "stop_id": "S0904000065", "stop_name": "中丸", "stop_lat": 36.576630849905698, "stop_lon": 139.851395057134, "zone_id": "0", "location_type": 1, "parent_station": null, "stop_code": null, "stop_desc": null, "stop_url": null, "stop_timezone": null, "wheelchair_boarding": null, "platform_code": null }, "geometry": { "type": "Point", "coordinates": [ 139.851395057133999, 36.576630849905698 ] } },
{ "type": "Feature", "properties": { "stop_id": "S0904000066", "stop_name": "西中丸", "stop_lat": 36.577733115257899, "stop_lon": 139.84868689795499, "zone_id": "0", "location_type": 1, "parent_station": null, "stop_code": null, "stop_desc": null, "stop_url": null, "stop_timezone": null, "wheelchair_boarding": null, "platform_code": null }, "geometry": { "type": "Point", "coordinates": [ 139.848686897954991, 36.577733115257899 ] } },
{ "type": "Feature", "properties": { "stop_id": "S0904000067", "stop_name": "駒生町", "stop_lat": 36.578219132538699, "stop_lon": 139.846291241199, "zone_id": "0", "location_type": 1, "parent_station": null, "stop_code": null, "stop_desc": null, "stop_url": null, "stop_timezone": null, "wheelchair_boarding": null, "platform_code": null }, "geometry": { "type": "Point", "coordinates": [ 139.846291241198998, 36.578219132538699 ] } },
{ "type": "Feature", "properties": { "stop_id": "S0904000068", "stop_name": "中丸公園前", "stop_lat": 36.579087032797602, "stop_lon": 139.84271510934099, "zone_id": "0", "location_type": 1, "parent_station": null, "stop_code": null, "stop_desc": null, "stop_url": null, "stop_timezone": null, "wheelchair_boarding": null, "platform_code": null }, "geometry": { "type": "Point", "coordinates": [ 139.842715109340986, 36.579087032797602 ] } },
{ "type": "Feature", "properties": { "stop_id": "S0904000069", "stop_name": "狭又局前", "stop_lat": 36.581482563204602, "stop_lon": 139.84004160995499, "zone_id": "0", "location_type": 1, "parent_station": null, "stop_code": null, "stop_desc": null, "stop_url": null, "stop_timezone": null, "wheelchair_boarding": null, "platform_code": null }, "geometry": { "type": "Point", "coordinates": [ 139.840041609954994, 36.581482563204602 ] } },
{ "type": "Feature", "properties": { "stop_id": "S0904000070", "stop_name": "とちぎ健康の森", "stop_lat": 36.583470266954897, "stop_lon": 139.84399952306001, "zone_id": "0", "location_type": 1, "parent_station": null, "stop_code": null, "stop_desc": null, "stop_url": null, "stop_timezone": null, "wheelchair_boarding": null, "platform_code": null }, "geometry": { "type": "Point", "coordinates": [ 139.843999523060006, 36.583470266954897 ] } },
{ "type": "Feature", "properties": { "stop_id": "S0904000071", "stop_name": "リハビリテーションセンター", "stop_lat": 36.585214878686401, "stop_lon": 139.84438135546, "zone_id": "0", "location_type": 1, "parent_station": null, "stop_code": null, "stop_desc": null, "stop_url": null, "stop_timezone": null, "wheelchair_boarding": null, "platform_code": null }, "geometry": { "type": "Point", "coordinates": [ 139.844381355460001, 36.585214878686401 ] } },
{ "type": "Feature", "properties": { "stop_id": "S0904000072", "stop_name": "駒生営業所", "stop_lat": 36.584624619772498, "stop_lon": 139.84184687090399, "zone_id": "0", "location_type": 1, "parent_station": null, "stop_code": null, "stop_desc": null, "stop_url": null, "stop_timezone": null, "wheelchair_boarding": null, "platform_code": null }, "geometry": { "type": "Point", "coordinates": [ 139.841846870903993, 36.584624619772498 ] } },
{ "type": "Feature", "properties": { "stop_id": "S0904000073", "stop_name": "新谷十文字", "stop_lat": 36.634498864151801, "stop_lon": 139.90520736788099, "zone_id": "0", "location_type": 1, "parent_station": null, "stop_code": null, "stop_desc": null, "stop_url": null, "stop_timezone": null, "wheelchair_boarding": null, "platform_code": null }, "geometry": { "type": "Point", "coordinates": [ 139.90520736788099, 36.634498864151801 ] } },
{ "type": "Feature", "properties": { "stop_id": "S0904000074", "stop_name": "上宝井", "stop_lat": 36.633900075995101, "stop_lon": 139.911283279743, "zone_id": "0", "location_type": 1, "parent_station": null, "stop_code": null, "stop_desc": null, "stop_url": null, "stop_timezone": null, "wheelchair_boarding": null, "platform_code": null }, "geometry": { "type": "Point", "coordinates": [ 139.911283279743003, 36.633900075995101 ] } },
{ "type": "Feature", "properties": { "stop_id": "S0904000075", "stop_name": "下宝井", "stop_lat": 36.624291801484397, "stop_lon": 139.91545004279399, "zone_id": "0", "location_type": 1, "parent_station": null, "stop_code": null, "stop_desc": null, "stop_url": null, "stop_timezone": null, "wheelchair_boarding": null, "platform_code": null }, "geometry": { "type": "Point", "coordinates": [ 139.915450042793992, 36.624291801484397 ] } },
{ "type": "Feature", "properties": { "stop_id": "S0904000076", "stop_name": "芝原十文字", "stop_lat": 36.618337592405403, "stop_lon": 139.916318300413, "zone_id": "0", "location_type": 1, "parent_station": null, "stop_code": null, "stop_desc": null, "stop_url": null, "stop_timezone": null, "wheelchair_boarding": null, "platform_code": null }, "geometry": { "type": "Point", "coordinates": [ 139.916318300412996, 36.618337592405403 ] } },
{ "type": "Feature", "properties": { "stop_id": "S0904000077", "stop_name": "大塚公民館前", "stop_lat": 36.614023814669899, "stop_lon": 139.916144902338, "zone_id": "0", "location_type": 1, "parent_station": null, "stop_code": null, "stop_desc": null, "stop_url": null, "stop_timezone": null, "wheelchair_boarding": null, "platform_code": null }, "geometry": { "type": "Point", "coordinates": [ 139.916144902338004, 36.614023814669899 ] } },
{ "type": "Feature", "properties": { "stop_id": "S0904000078", "stop_name": "下大塚", "stop_lat": 36.609145869657802, "stop_lon": 139.916457600982, "zone_id": "0", "location_type": 1, "parent_station": null, "stop_code": null, "stop_desc": null, "stop_url": null, "stop_timezone": null, "wheelchair_boarding": null, "platform_code": null }, "geometry": { "type": "Point", "coordinates": [ 139.916457600982, 36.609145869657802 ] } },
{ "type": "Feature", "properties": { "stop_id": "S0904000079", "stop_name": "古川橋", "stop_lat": 36.605040379931602, "stop_lon": 139.914964858443, "zone_id": "0", "location_type": 1, "parent_station": null, "stop_code": null, "stop_desc": null, "stop_url": null, "stop_timezone": null, "wheelchair_boarding": null, "platform_code": null }, "geometry": { "type": "Point", "coordinates": [ 139.914964858443, 36.605040379931602 ] } },
{ "type": "Feature", "properties": { "stop_id": "S0904000080", "stop_name": "川俣農業倉庫", "stop_lat": 36.601828831165101, "stop_lon": 139.910000140861, "zone_id": "0", "location_type": 1, "parent_station": null, "stop_code": null, "stop_desc": null, "stop_url": null, "stop_timezone": null, "wheelchair_boarding": null, "platform_code": null }, "geometry": { "type": "Point", "coordinates": [ 139.910000140861001, 36.601828831165101 ] } },
{ "type": "Feature", "properties": { "stop_id": "S0904000081", "stop_name": "西川俣", "stop_lat": 36.602054461449796, "stop_lon": 139.90770865411099, "zone_id": "0", "location_type": 1, "parent_station": null, "stop_code": null, "stop_desc": null, "stop_url": null, "stop_timezone": null, "wheelchair_boarding": null, "platform_code": null }, "geometry": { "type": "Point", "coordinates": [ 139.907708654110991, 36.602054461449796 ] } },
{ "type": "Feature", "properties": { "stop_id": "S0904000082", "stop_name": "文星女子高入口", "stop_lat": 36.567343945964097, "stop_lon": 139.86840796074901, "zone_id": "0", "location_type": 1, "parent_station": null, "stop_code": null, "stop_desc": null, "stop_url": null, "stop_timezone": null, "wheelchair_boarding": null, "platform_code": null }, "geometry": { "type": "Point", "coordinates": [ 139.86840796074901, 36.567343945964097 ] } },
{ "type": "Feature", "properties": { "stop_id": "S0904000083", "stop_name": "桜四丁目", "stop_lat": 36.569574624093804, "stop_lon": 139.86920640283401, "zone_id": "0", "location_type": 1, "parent_station": null, "stop_code": null, "stop_desc": null, "stop_url": null, "stop_timezone": null, "wheelchair_boarding": null, "platform_code": null }, "geometry": { "type": "Point", "coordinates": [ 139.86920640283401, 36.569574624093804 ] } },
{ "type": "Feature", "properties": { "stop_id": "S0904000084", "stop_name": "戸祭一丁目", "stop_lat": 36.571623028233802, "stop_lon": 139.869900695296, "zone_id": "0", "location_type": 1, "parent_station": null, "stop_code": null, "stop_desc": null, "stop_url": null, "stop_timezone": null, "wheelchair_boarding": null, "platform_code": null }, "geometry": { "type": "Point", "coordinates": [ 139.869900695295996, 36.571623028233802 ] } },
{ "type": "Feature", "properties": { "stop_id": "S0904000085", "stop_name": "仁良塚街道入口", "stop_lat": 36.573428400993798, "stop_lon": 139.87049084093101, "zone_id": "0", "location_type": 1, "parent_station": null, "stop_code": null, "stop_desc": null, "stop_url": null, "stop_timezone": null, "wheelchair_boarding": null, "platform_code": null }, "geometry": { "type": "Point", "coordinates": [ 139.870490840931012, 36.573428400993798 ] } },
{ "type": "Feature", "properties": { "stop_id": "S0904000086", "stop_name": "仏所護念会入口", "stop_lat": 36.576804781420499, "stop_lon": 139.87080315952201, "zone_id": "0", "location_type": 1, "parent_station": null, "stop_code": null, "stop_desc": null, "stop_url": null, "stop_timezone": null, "wheelchair_boarding": null, "platform_code": null }, "geometry": { "type": "Point", "coordinates": [ 139.870803159522012, 36.576804781420499 ] } },
{ "type": "Feature", "properties": { "stop_id": "S0904000087", "stop_name": "体育館前", "stop_lat": 36.577985199194302, "stop_lon": 139.87014343773501, "zone_id": "0", "location_type": 1, "parent_station": null, "stop_code": null, "stop_desc": null, "stop_url": null, "stop_timezone": null, "wheelchair_boarding": null, "platform_code": null }, "geometry": { "type": "Point", "coordinates": [ 139.87014343773501, 36.577985199194302 ] } },
{ "type": "Feature", "properties": { "stop_id": "S0904000088", "stop_name": "栃木医療センター前", "stop_lat": 36.580120368073601, "stop_lon": 139.86903232058401, "zone_id": "0", "location_type": 1, "parent_station": null, "stop_code": null, "stop_desc": null, "stop_url": null, "stop_timezone": null, "wheelchair_boarding": null, "platform_code": null }, "geometry": { "type": "Point", "coordinates": [ 139.869032320584012, 36.580120368073601 ] } },
{ "type": "Feature", "properties": { "stop_id": "S0904000089", "stop_name": "中戸祭", "stop_lat": 36.582090628281499, "stop_lon": 139.86816424639599, "zone_id": "0", "location_type": 1, "parent_station": null, "stop_code": null, "stop_desc": null, "stop_url": null, "stop_timezone": null, "wheelchair_boarding": null, "platform_code": null }, "geometry": { "type": "Point", "coordinates": [ 139.868164246395992, 36.582090628281499 ] } },
{ "type": "Feature", "properties": { "stop_id": "S0904000090", "stop_name": "長岡街道入口", "stop_lat": 36.5853020581959, "stop_lon": 139.86632397357499, "zone_id": "0", "location_type": 1, "parent_station": null, "stop_code": null, "stop_desc": null, "stop_url": null, "stop_timezone": null, "wheelchair_boarding": null, "platform_code": null }, "geometry": { "type": "Point", "coordinates": [ 139.866323973574993, 36.5853020581959 ] } },
{ "type": "Feature", "properties": { "stop_id": "S0904000091", "stop_name": "上戸祭小入口", "stop_lat": 36.590284113254903, "stop_lon": 139.863407319727, "zone_id": "0", "location_type": 1, "parent_station": null, "stop_code": null, "stop_desc": null, "stop_url": null, "stop_timezone": null, "wheelchair_boarding": null, "platform_code": null }, "geometry": { "type": "Point", "coordinates": [ 139.863407319727003, 36.590284113254903 ] } },
{ "type": "Feature", "properties": { "stop_id": "S0904000092", "stop_name": "細谷新道口", "stop_lat": 36.592983453655698, "stop_lon": 139.86205314122799, "zone_id": "0", "location_type": 1, "parent_station": null, "stop_code": null, "stop_desc": null, "stop_url": null, "stop_timezone": null, "wheelchair_boarding": null, "platform_code": null }, "geometry": { "type": "Point", "coordinates": [ 139.862053141227989, 36.592983453655698 ] } },
{ "type": "Feature", "properties": { "stop_id": "S0904000093", "stop_name": "上戸祭四丁目", "stop_lat": 36.5963598043693, "stop_lon": 139.86066421221801, "zone_id": "0", "location_type": 1, "parent_station": null, "stop_code": null, "stop_desc": null, "stop_url": null, "stop_timezone": null, "wheelchair_boarding": null, "platform_code": null }, "geometry": { "type": "Point", "coordinates": [ 139.860664212218012, 36.5963598043693 ] } },
{ "type": "Feature", "properties": { "stop_id": "S0904000094", "stop_name": "文星大学前", "stop_lat": 36.598963674935, "stop_lon": 139.85965723150301, "zone_id": "0", "location_type": 1, "parent_station": null, "stop_code": null, "stop_desc": null, "stop_url": null, "stop_timezone": null, "wheelchair_boarding": null, "platform_code": null }, "geometry": { "type": "Point", "coordinates": [ 139.859657231503007, 36.598963674935 ] } },
{ "type": "Feature", "properties": { "stop_id": "S0904000095", "stop_name": "とちぎ男女共同参画センター", "stop_lat": 36.601142246801402, "stop_lon": 139.85882386706299, "zone_id": "0", "location_type": 1, "parent_station": null, "stop_code": null, "stop_desc": null, "stop_url": null, "stop_timezone": null, "wheelchair_boarding": null, "platform_code": null }, "geometry": { "type": "Point", "coordinates": [ 139.858823867062995, 36.601142246801402 ] } },
{ "type": "Feature", "properties": { "stop_id": "S0904000096", "stop_name": "弁天橋", "stop_lat": 36.607278706221003, "stop_lon": 139.85670570485601, "zone_id": "0", "location_type": 1, "parent_station": null, "stop_code": null, "stop_desc": null, "stop_url": null, "stop_timezone": null, "wheelchair_boarding": null, "platform_code": null }, "geometry": { "type": "Point", "coordinates": [ 139.856705704856012, 36.607278706221003 ] } },
{ "type": "Feature", "properties": { "stop_id": "S0904000097", "stop_name": "野沢寺前", "stop_lat": 36.611635857230297, "stop_lon": 139.85545560804201, "zone_id": "0", "location_type": 1, "parent_station": null, "stop_code": null, "stop_desc": null, "stop_url": null, "stop_timezone": null, "wheelchair_boarding": null, "platform_code": null }, "geometry": { "type": "Point", "coordinates": [ 139.855455608042007, 36.611635857230297 ] } },
{ "type": "Feature", "properties": { "stop_id": "S0904000098", "stop_name": "大杉屋", "stop_lat": 36.619221818631999, "stop_lon": 139.85358041446699, "zone_id": "0", "location_type": 1, "parent_station": null, "stop_code": null, "stop_desc": null, "stop_url": null, "stop_timezone": null, "wheelchair_boarding": null, "platform_code": null }, "geometry": { "type": "Point", "coordinates": [ 139.85358041446699, 36.619221818631999 ] } },
{ "type": "Feature", "properties": { "stop_id": "S0904000099", "stop_name": "下金井", "stop_lat": 36.628838810366098, "stop_lon": 139.85156625002099, "zone_id": "0", "location_type": 1, "parent_station": null, "stop_code": null, "stop_desc": null, "stop_url": null, "stop_timezone": null, "wheelchair_boarding": null, "platform_code": null }, "geometry": { "type": "Point", "coordinates": [ 139.851566250020994, 36.628838810366098 ] } },
{ "type": "Feature", "properties": { "stop_id": "S0904000100", "stop_name": "上金井", "stop_lat": 36.634168079012099, "stop_lon": 139.85028138910999, "zone_id": "0", "location_type": 1, "parent_station": null, "stop_code": null, "stop_desc": null, "stop_url": null, "stop_timezone": null, "wheelchair_boarding": null, "platform_code": null }, "geometry": { "type": "Point", "coordinates": [ 139.850281389109995, 36.634168079012099 ] } },
{ "type": "Feature", "properties": { "stop_id": "S0904000101", "stop_name": "下徳次郎", "stop_lat": 36.638724857808, "stop_lon": 139.84882296707201, "zone_id": "0", "location_type": 1, "parent_station": null, "stop_code": null, "stop_desc": null, "stop_url": null, "stop_timezone": null, "wheelchair_boarding": null, "platform_code": null }, "geometry": { "type": "Point", "coordinates": [ 139.84882296707201, 36.638724857808 ] } },
{ "type": "Feature", "properties": { "stop_id": "S0904000102", "stop_name": "山王団地入口", "stop_lat": 36.641302691917801, "stop_lon": 139.847954864911, "zone_id": "0", "location_type": 1, "parent_station": null, "stop_code": null, "stop_desc": null, "stop_url": null, "stop_timezone": null, "wheelchair_boarding": null, "platform_code": null }, "geometry": { "type": "Point", "coordinates": [ 139.847954864911003, 36.641302691917801 ] } },
{ "type": "Feature", "properties": { "stop_id": "S0904000103", "stop_name": "富屋小学校前", "stop_lat": 36.644800559231001, "stop_lon": 139.84667008832301, "zone_id": "0", "location_type": 1, "parent_station": null, "stop_code": null, "stop_desc": null, "stop_url": null, "stop_timezone": null, "wheelchair_boarding": null, "platform_code": null }, "geometry": { "type": "Point", "coordinates": [ 139.846670088323009, 36.644800559231001 ] } },
{ "type": "Feature", "properties": { "stop_id": "S0904000104", "stop_name": "中徳次郎", "stop_lat": 36.650442270806103, "stop_lon": 139.84403115881199, "zone_id": "0", "location_type": 1, "parent_station": null, "stop_code": null, "stop_desc": null, "stop_url": null, "stop_timezone": null, "wheelchair_boarding": null, "platform_code": null }, "geometry": { "type": "Point", "coordinates": [ 139.844031158811987, 36.650442270806103 ] } },
{ "type": "Feature", "properties": { "stop_id": "S0904000105", "stop_name": "晃陽中前", "stop_lat": 36.654955627210697, "stop_lon": 139.84118396522101, "zone_id": "0", "location_type": 1, "parent_station": null, "stop_code": null, "stop_desc": null, "stop_url": null, "stop_timezone": null, "wheelchair_boarding": null, "platform_code": null }, "geometry": { "type": "Point", "coordinates": [ 139.841183965221006, 36.654955627210697 ] } },
{ "type": "Feature", "properties": { "stop_id": "S0904000106", "stop_name": "六本杉", "stop_lat": 36.658904823615302, "stop_lon": 139.839239500415, "zone_id": "0", "location_type": 1, "parent_station": null, "stop_code": null, "stop_desc": null, "stop_url": null, "stop_timezone": null, "wheelchair_boarding": null, "platform_code": null }, "geometry": { "type": "Point", "coordinates": [ 139.839239500415005, 36.658904823615302 ] } },
{ "type": "Feature", "properties": { "stop_id": "S0904000107", "stop_name": "大網入口", "stop_lat": 36.661482638320699, "stop_lon": 139.83726037941301, "zone_id": "0", "location_type": 1, "parent_station": null, "stop_code": null, "stop_desc": null, "stop_url": null, "stop_timezone": null, "wheelchair_boarding": null, "platform_code": null }, "geometry": { "type": "Point", "coordinates": [ 139.83726037941301, 36.661482638320699 ] } },
{ "type": "Feature", "properties": { "stop_id": "S0904000108", "stop_name": "上徳次郎", "stop_lat": 36.664685372235397, "stop_lon": 139.834482684845, "zone_id": "0", "location_type": 1, "parent_station": null, "stop_code": null, "stop_desc": null, "stop_url": null, "stop_timezone": null, "wheelchair_boarding": null, "platform_code": null }, "geometry": { "type": "Point", "coordinates": [ 139.834482684845, 36.664685372235397 ] } },
{ "type": "Feature", "properties": { "stop_id": "S0904000109", "stop_name": "一里塚", "stop_lat": 36.6673846295608, "stop_lon": 139.82837195693099, "zone_id": "0", "location_type": 1, "parent_station": null, "stop_code": null, "stop_desc": null, "stop_url": null, "stop_timezone": null, "wheelchair_boarding": null, "platform_code": null }, "geometry": { "type": "Point", "coordinates": [ 139.828371956930994, 36.6673846295608 ] } },
{ "type": "Feature", "properties": { "stop_id": "S0904000110", "stop_name": "榊里", "stop_lat": 36.668504102570203, "stop_lon": 139.81698396225801, "zone_id": "0", "location_type": 1, "parent_station": null, "stop_code": null, "stop_desc": null, "stop_url": null, "stop_timezone": null, "wheelchair_boarding": null, "platform_code": null }, "geometry": { "type": "Point", "coordinates": [ 139.816983962258007, 36.668504102570203 ] } },
{ "type": "Feature", "properties": { "stop_id": "S0904000111", "stop_name": "石那田", "stop_lat": 36.671342233930403, "stop_lon": 139.81087322795, "zone_id": "0", "location_type": 1, "parent_station": null, "stop_code": null, "stop_desc": null, "stop_url": null, "stop_timezone": null, "wheelchair_boarding": null, "platform_code": null }, "geometry": { "type": "Point", "coordinates": [ 139.810873227949997, 36.671342233930403 ] } },
{ "type": "Feature", "properties": { "stop_id": "S0904000112", "stop_name": "石那田中央", "stop_lat": 36.673624898258304, "stop_lon": 139.806429047482, "zone_id": "0", "location_type": 1, "parent_station": null, "stop_code": null, "stop_desc": null, "stop_url": null, "stop_timezone": null, "wheelchair_boarding": null, "platform_code": null }, "geometry": { "type": "Point", "coordinates": [ 139.806429047481998, 36.673624898258304 ] } },
{ "type": "Feature", "properties": { "stop_id": "S0904000113", "stop_name": "海老王子", "stop_lat": 36.675204537647502, "stop_lon": 139.803408392275, "zone_id": "0", "location_type": 1, "parent_station": null, "stop_code": null, "stop_desc": null, "stop_url": null, "stop_timezone": null, "wheelchair_boarding": null, "platform_code": null }, "geometry": { "type": "Point", "coordinates": [ 139.803408392275003, 36.675204537647502 ] } },
{ "type": "Feature", "properties": { "stop_id": "S0904000114", "stop_name": "原石那田", "stop_lat": 36.677947211300499, "stop_lon": 139.79833924252699, "zone_id": "0", "location_type": 1, "parent_station": null, "stop_code": null, "stop_desc": null, "stop_url": null, "stop_timezone": null, "wheelchair_boarding": null, "platform_code": null }, "geometry": { "type": "Point", "coordinates": [ 139.798339242526993, 36.677947211300499 ] } },
{ "type": "Feature", "properties": { "stop_id": "S0904000115", "stop_name": "松本", "stop_lat": 36.6807766709166, "stop_lon": 139.79267986002401, "zone_id": "0", "location_type": 1, "parent_station": null, "stop_code": null, "stop_desc": null, "stop_url": null, "stop_timezone": null, "wheelchair_boarding": null, "platform_code": null }, "geometry": { "type": "Point", "coordinates": [ 139.792679860024009, 36.6807766709166 ] } },
{ "type": "Feature", "properties": { "stop_id": "S0904000116", "stop_name": "上小池", "stop_lat": 36.683554076418801, "stop_lon": 139.78837453413101, "zone_id": "0", "location_type": 1, "parent_station": null, "stop_code": null, "stop_desc": null, "stop_url": null, "stop_timezone": null, "wheelchair_boarding": null, "platform_code": null }, "geometry": { "type": "Point", "coordinates": [ 139.788374534131009, 36.683554076418801 ] } },
{ "type": "Feature", "properties": { "stop_id": "S0904000117", "stop_name": "山口", "stop_lat": 36.6855328561672, "stop_lon": 139.778340554105, "zone_id": "0", "location_type": 1, "parent_station": null, "stop_code": null, "stop_desc": null, "stop_url": null, "stop_timezone": null, "wheelchair_boarding": null, "platform_code": null }, "geometry": { "type": "Point", "coordinates": [ 139.778340554105, 36.6855328561672 ] } },
{ "type": "Feature", "properties": { "stop_id": "S0904000118", "stop_name": "青少年スポーツセンター口", "stop_lat": 36.688822283873797, "stop_lon": 139.769695287286, "zone_id": "0", "location_type": 1, "parent_station": null, "stop_code": null, "stop_desc": null, "stop_url": null, "stop_timezone": null, "wheelchair_boarding": null, "platform_code": null }, "geometry": { "type": "Point", "coordinates": [ 139.769695287285998, 36.688822283873797 ] } },
{ "type": "Feature", "properties": { "stop_id": "S0904000119", "stop_name": "大沢並木入口", "stop_lat": 36.690219611677101, "stop_lon": 139.76441788344999, "zone_id": "0", "location_type": 1, "parent_station": null, "stop_code": null, "stop_desc": null, "stop_url": null, "stop_timezone": null, "wheelchair_boarding": null, "platform_code": null }, "geometry": { "type": "Point", "coordinates": [ 139.764417883449994, 36.690219611677101 ] } },
{ "type": "Feature", "properties": { "stop_id": "S0904000120", "stop_name": "下大沢", "stop_lat": 36.693769467007797, "stop_lon": 139.75799464232401, "zone_id": "0", "location_type": 1, "parent_station": null, "stop_code": null, "stop_desc": null, "stop_url": null, "stop_timezone": null, "wheelchair_boarding": null, "platform_code": null }, "geometry": { "type": "Point", "coordinates": [ 139.757994642324007, 36.693769467007797 ] } },
{ "type": "Feature", "properties": { "stop_id": "S0904000121", "stop_name": "神崎前", "stop_lat": 36.695045354010098, "stop_lon": 139.756953003413, "zone_id": "0", "location_type": 1, "parent_station": null, "stop_code": null, "stop_desc": null, "stop_url": null, "stop_timezone": null, "wheelchair_boarding": null, "platform_code": null }, "geometry": { "type": "Point", "coordinates": [ 139.756953003413003, 36.695045354010098 ] } },
{ "type": "Feature", "properties": { "stop_id": "S0904000122", "stop_name": "大沢小学校入口", "stop_lat": 36.696017459518899, "stop_lon": 139.75622385253999, "zone_id": "0", "location_type": 1, "parent_station": null, "stop_code": null, "stop_desc": null, "stop_url": null, "stop_timezone": null, "wheelchair_boarding": null, "platform_code": null }, "geometry": { "type": "Point", "coordinates": [ 139.756223852539989, 36.696017459518899 ] } },
{ "type": "Feature", "properties": { "stop_id": "S0904000123", "stop_name": "御殿工場入口", "stop_lat": 36.700070789013303, "stop_lon": 139.75299476740301, "zone_id": "0", "location_type": 1, "parent_station": null, "stop_code": null, "stop_desc": null, "stop_url": null, "stop_timezone": null, "wheelchair_boarding": null, "platform_code": null }, "geometry": { "type": "Point", "coordinates": [ 139.75299476740301, 36.700070789013303 ] } },
{ "type": "Feature", "properties": { "stop_id": "S0904000124", "stop_name": "下水無", "stop_lat": 36.7066151199624, "stop_lon": 139.746814423774, "zone_id": "0", "location_type": 1, "parent_station": null, "stop_code": null, "stop_desc": null, "stop_url": null, "stop_timezone": null, "wheelchair_boarding": null, "platform_code": null }, "geometry": { "type": "Point", "coordinates": [ 139.746814423773998, 36.7066151199624 ] } },
{ "type": "Feature", "properties": { "stop_id": "S0904000125", "stop_name": "上水無", "stop_lat": 36.708628754050601, "stop_lon": 139.744557574038, "zone_id": "0", "location_type": 1, "parent_station": null, "stop_code": null, "stop_desc": null, "stop_url": null, "stop_timezone": null, "wheelchair_boarding": null, "platform_code": null }, "geometry": { "type": "Point", "coordinates": [ 139.744557574037998, 36.708628754050601 ] } },
{ "type": "Feature", "properties": { "stop_id": "S0904000126", "stop_name": "シドミ原", "stop_lat": 36.7129249463487, "stop_lon": 139.73178065954599, "zone_id": "0", "location_type": 1, "parent_station": null, "stop_code": null, "stop_desc": null, "stop_url": null, "stop_timezone": null, "wheelchair_boarding": null, "platform_code": null }, "geometry": { "type": "Point", "coordinates": [ 139.73178065954599, 36.7129249463487 ] } },
{ "type": "Feature", "properties": { "stop_id": "S0904000127", "stop_name": "下森友", "stop_lat": 36.714487160387101, "stop_lon": 139.72497559721, "zone_id": "0", "location_type": 1, "parent_station": null, "stop_code": null, "stop_desc": null, "stop_url": null, "stop_timezone": null, "wheelchair_boarding": null, "platform_code": null }, "geometry": { "type": "Point", "coordinates": [ 139.724975597210005, 36.714487160387101 ] } },
{ "type": "Feature", "properties": { "stop_id": "S0904000128", "stop_name": "中森友", "stop_lat": 36.715528662285202, "stop_lon": 139.72192024744001, "zone_id": "0", "location_type": 1, "parent_station": null, "stop_code": null, "stop_desc": null, "stop_url": null, "stop_timezone": null, "wheelchair_boarding": null, "platform_code": null }, "geometry": { "type": "Point", "coordinates": [ 139.721920247440011, 36.715528662285202 ] } },
{ "type": "Feature", "properties": { "stop_id": "S0904000129", "stop_name": "上森友", "stop_lat": 36.716353178355298, "stop_lon": 139.71914266237201, "zone_id": "0", "location_type": 1, "parent_station": null, "stop_code": null, "stop_desc": null, "stop_url": null, "stop_timezone": null, "wheelchair_boarding": null, "platform_code": null }, "geometry": { "type": "Point", "coordinates": [ 139.719142662372008, 36.716353178355298 ] } },
{ "type": "Feature", "properties": { "stop_id": "S0904000130", "stop_name": "今市日産前", "stop_lat": 36.718679180180203, "stop_lon": 139.71122654602701, "zone_id": "0", "location_type": 1, "parent_station": null, "stop_code": null, "stop_desc": null, "stop_url": null, "stop_timezone": null, "wheelchair_boarding": null, "platform_code": null }, "geometry": { "type": "Point", "coordinates": [ 139.711226546027007, 36.718679180180203 ] } },
{ "type": "Feature", "properties": { "stop_id": "S0904000131", "stop_name": "七本桜", "stop_lat": 36.721187448718297, "stop_lon": 139.70299794723999, "zone_id": "0", "location_type": 1, "parent_station": null, "stop_code": null, "stop_desc": null, "stop_url": null, "stop_timezone": null, "wheelchair_boarding": null, "platform_code": null }, "geometry": { "type": "Point", "coordinates": [ 139.702997947239993, 36.721187448718297 ] } },
{ "type": "Feature", "properties": { "stop_id": "S0904000132", "stop_name": "日光市役所", "stop_lat": 36.721317558837697, "stop_lon": 139.698171953155, "zone_id": "0", "location_type": 1, "parent_station": null, "stop_code": null, "stop_desc": null, "stop_url": null, "stop_timezone": null, "wheelchair_boarding": null, "platform_code": null }, "geometry": { "type": "Point", "coordinates": [ 139.698171953154997, 36.721317558837697 ] } },
{ "type": "Feature", "properties": { "stop_id": "S0904000133", "stop_name": "鹿沼街道入口", "stop_lat": 36.722037896945302, "stop_lon": 139.69410975734701, "zone_id": "0", "location_type": 1, "parent_station": null, "stop_code": null, "stop_desc": null, "stop_url": null, "stop_timezone": null, "wheelchair_boarding": null, "platform_code": null }, "geometry": { "type": "Point", "coordinates": [ 139.694109757347007, 36.722037896945302 ] } },
{ "type": "Feature", "properties": { "stop_id": "S0904000134", "stop_name": "下今市", "stop_lat": 36.723192212166801, "stop_lon": 139.68980450618699, "zone_id": "0", "location_type": 1, "parent_station": null, "stop_code": null, "stop_desc": null, "stop_url": null, "stop_timezone": null, "wheelchair_boarding": null, "platform_code": null }, "geometry": { "type": "Point", "coordinates": [ 139.689804506186988, 36.723192212166801 ] } },
{ "type": "Feature", "properties": { "stop_id": "S0904000136", "stop_name": "小倉町", "stop_lat": 36.724285803349403, "stop_lon": 139.68740882145599, "zone_id": "0", "location_type": 1, "parent_station": null, "stop_code": null, "stop_desc": null, "stop_url": null, "stop_timezone": null, "wheelchair_boarding": null, "platform_code": null }, "geometry": { "type": "Point", "coordinates": [ 139.687408821455989, 36.724285803349403 ] } },
{ "type": "Feature", "properties": { "stop_id": "S0904000137", "stop_name": "相の道", "stop_lat": 36.725075619708797, "stop_lon": 139.68570753748901, "zone_id": "0", "location_type": 1, "parent_station": null, "stop_code": null, "stop_desc": null, "stop_url": null, "stop_timezone": null, "wheelchair_boarding": null, "platform_code": null }, "geometry": { "type": "Point", "coordinates": [ 139.685707537489009, 36.725075619708797 ] } },
{ "type": "Feature", "properties": { "stop_id": "S0904000138", "stop_name": "春日町一丁目", "stop_lat": 36.7258307157404, "stop_lon": 139.68390209710401, "zone_id": "0", "location_type": 1, "parent_station": null, "stop_code": null, "stop_desc": null, "stop_url": null, "stop_timezone": null, "wheelchair_boarding": null, "platform_code": null }, "geometry": { "type": "Point", "coordinates": [ 139.68390209710401, 36.7258307157404 ] } },
{ "type": "Feature", "properties": { "stop_id": "S0904000139", "stop_name": "上今市", "stop_lat": 36.726455622215497, "stop_lon": 139.68237441742301, "zone_id": "0", "location_type": 1, "parent_station": null, "stop_code": null, "stop_desc": null, "stop_url": null, "stop_timezone": null, "wheelchair_boarding": null, "platform_code": null }, "geometry": { "type": "Point", "coordinates": [ 139.682374417423006, 36.726455622215497 ] } },
{ "type": "Feature", "properties": { "stop_id": "S0904000140", "stop_name": "今市車庫", "stop_lat": 36.728616723858302, "stop_lon": 139.675187414786, "zone_id": "0", "location_type": 1, "parent_station": null, "stop_code": null, "stop_desc": null, "stop_url": null, "stop_timezone": null, "wheelchair_boarding": null, "platform_code": null }, "geometry": { "type": "Point", "coordinates": [ 139.675187414785995, 36.728616723858302 ] } },
{ "type": "Feature", "properties": { "stop_id": "S0904000141", "stop_name": "瀬川", "stop_lat": 36.728651399313399, "stop_lon": 139.67272234013299, "zone_id": "0", "location_type": 1, "parent_station": null, "stop_code": null, "stop_desc": null, "stop_url": null, "stop_timezone": null, "wheelchair_boarding": null, "platform_code": null }, "geometry": { "type": "Point", "coordinates": [ 139.672722340132992, 36.728651399313399 ] } },
{ "type": "Feature", "properties": { "stop_id": "S0904000142", "stop_name": "野口十文字", "stop_lat": 36.732782677482497, "stop_lon": 139.65987599455701, "zone_id": "0", "location_type": 1, "parent_station": null, "stop_code": null, "stop_desc": null, "stop_url": null, "stop_timezone": null, "wheelchair_boarding": null, "platform_code": null }, "geometry": { "type": "Point", "coordinates": [ 139.659875994557012, 36.732782677482497 ] } },
{ "type": "Feature", "properties": { "stop_id": "S0904000143", "stop_name": "野口石橋", "stop_lat": 36.7344316762712, "stop_lon": 139.65241126078701, "zone_id": "0", "location_type": 1, "parent_station": null, "stop_code": null, "stop_desc": null, "stop_url": null, "stop_timezone": null, "wheelchair_boarding": null, "platform_code": null }, "geometry": { "type": "Point", "coordinates": [ 139.652411260787005, 36.7344316762712 ] } },
{ "type": "Feature", "properties": { "stop_id": "S0904000144", "stop_name": "野口小学校前", "stop_lat": 36.734935003688797, "stop_lon": 139.64720333679099, "zone_id": "0", "location_type": 1, "parent_station": null, "stop_code": null, "stop_desc": null, "stop_url": null, "stop_timezone": null, "wheelchair_boarding": null, "platform_code": null }, "geometry": { "type": "Point", "coordinates": [ 139.647203336790994, 36.734935003688797 ] } },
{ "type": "Feature", "properties": { "stop_id": "S0904000145", "stop_name": "生岡神社前", "stop_lat": 36.737894631031303, "stop_lon": 139.64001629738701, "zone_id": "0", "location_type": 1, "parent_station": null, "stop_code": null, "stop_desc": null, "stop_url": null, "stop_timezone": null, "wheelchair_boarding": null, "platform_code": null }, "geometry": { "type": "Point", "coordinates": [ 139.640016297387007, 36.737894631031303 ] } },
{ "type": "Feature", "properties": { "stop_id": "S0904000146", "stop_name": "七里", "stop_lat": 36.742390500839903, "stop_lon": 139.62987804344999, "zone_id": "0", "location_type": 1, "parent_station": null, "stop_code": null, "stop_desc": null, "stop_url": null, "stop_timezone": null, "wheelchair_boarding": null, "platform_code": null }, "geometry": { "type": "Point", "coordinates": [ 139.629878043449992, 36.742390500839903 ] } },
{ "type": "Feature", "properties": { "stop_id": "S0904000147", "stop_name": "ＪＲ日光駅", "stop_lat": 36.746131285531803, "stop_lon": 139.62217017799799, "zone_id": "0", "location_type": 1, "parent_station": null, "stop_code": null, "stop_desc": null, "stop_url": null, "stop_timezone": null, "wheelchair_boarding": null, "platform_code": null }, "geometry": { "type": "Point", "coordinates": [ 139.622170177997987, 36.746131285531803 ] } },
{ "type": "Feature", "properties": { "stop_id": "S0904000148", "stop_name": "宇都宮駅東口", "stop_lat": 36.559741131642902, "stop_lon": 139.89927380300799, "zone_id": "0", "location_type": 1, "parent_station": null, "stop_code": null, "stop_desc": null, "stop_url": null, "stop_timezone": null, "wheelchair_boarding": null, "platform_code": null }, "geometry": { "type": "Point", "coordinates": [ 139.899273803007986, 36.559741131642902 ] } },
{ "type": "Feature", "properties": { "stop_id": "S0904000149", "stop_name": "宿郷町", "stop_lat": 36.5583611273169, "stop_lon": 139.90250276505799, "zone_id": "0", "location_type": 1, "parent_station": null, "stop_code": null, "stop_desc": null, "stop_url": null, "stop_timezone": null, "wheelchair_boarding": null, "platform_code": null }, "geometry": { "type": "Point", "coordinates": [ 139.902502765057989, 36.5583611273169 ] } },
{ "type": "Feature", "properties": { "stop_id": "S0904000150", "stop_name": "東宿郷四丁目", "stop_lat": 36.5579706344462, "stop_lon": 139.90767596452, "zone_id": "0", "location_type": 1, "parent_station": null, "stop_code": null, "stop_desc": null, "stop_url": null, "stop_timezone": null, "wheelchair_boarding": null, "platform_code": null }, "geometry": { "type": "Point", "coordinates": [ 139.907675964519996, 36.5579706344462 ] } },
{ "type": "Feature", "properties": { "stop_id": "S0904000151", "stop_name": "東宿郷", "stop_lat": 36.557797074041403, "stop_lon": 139.90951609746901, "zone_id": "0", "location_type": 1, "parent_station": null, "stop_code": null, "stop_desc": null, "stop_url": null, "stop_timezone": null, "wheelchair_boarding": null, "platform_code": null }, "geometry": { "type": "Point", "coordinates": [ 139.909516097469009, 36.557797074041403 ] } },
{ "type": "Feature", "properties": { "stop_id": "S0904000152", "stop_name": "バイパス十文字", "stop_lat": 36.557580160373597, "stop_lon": 139.91392546348499, "zone_id": "0", "location_type": 1, "parent_station": null, "stop_code": null, "stop_desc": null, "stop_url": null, "stop_timezone": null, "wheelchair_boarding": null, "platform_code": null }, "geometry": { "type": "Point", "coordinates": [ 139.913925463484986, 36.557580160373597 ] } },
{ "type": "Feature", "properties": { "stop_id": "S0904000153", "stop_name": "今泉町", "stop_lat": 36.557458711083299, "stop_lon": 139.91767515766901, "zone_id": "0", "location_type": 1, "parent_station": null, "stop_code": null, "stop_desc": null, "stop_url": null, "stop_timezone": null, "wheelchair_boarding": null, "platform_code": null }, "geometry": { "type": "Point", "coordinates": [ 139.917675157669009, 36.557458711083299 ] } },
{ "type": "Feature", "properties": { "stop_id": "S0904000154", "stop_name": "陽東四丁目", "stop_lat": 36.5573112562627, "stop_lon": 139.92333441668401, "zone_id": "0", "location_type": 1, "parent_station": null, "stop_code": null, "stop_desc": null, "stop_url": null, "stop_timezone": null, "wheelchair_boarding": null, "platform_code": null }, "geometry": { "type": "Point", "coordinates": [ 139.923334416684014, 36.5573112562627 ] } },
{ "type": "Feature", "properties": { "stop_id": "S0904000155", "stop_name": "陽東三丁目", "stop_lat": 36.557241863511798, "stop_lon": 139.925868931612, "zone_id": "0", "location_type": 1, "parent_station": null, "stop_code": null, "stop_desc": null, "stop_url": null, "stop_timezone": null, "wheelchair_boarding": null, "platform_code": null }, "geometry": { "type": "Point", "coordinates": [ 139.925868931612001, 36.557241863511798 ] } },
{ "type": "Feature", "properties": { "stop_id": "S0904000156", "stop_name": "ベルモール", "stop_lat": 36.554768224949598, "stop_lon": 139.92902850533901, "zone_id": "0", "location_type": 1, "parent_station": null, "stop_code": null, "stop_desc": null, "stop_url": null, "stop_timezone": null, "wheelchair_boarding": null, "platform_code": null }, "geometry": { "type": "Point", "coordinates": [ 139.929028505339005, 36.554768224949598 ] } },
{ "type": "Feature", "properties": { "stop_id": "S0904000157", "stop_name": "ベルモール入口", "stop_lat": 36.557068338883902, "stop_lon": 139.92975750554899, "zone_id": "0", "location_type": 1, "parent_station": null, "stop_code": null, "stop_desc": null, "stop_url": null, "stop_timezone": null, "wheelchair_boarding": null, "platform_code": null }, "geometry": { "type": "Point", "coordinates": [ 139.929757505548992, 36.557068338883902 ] } },
{ "type": "Feature", "properties": { "stop_id": "S0904000158", "stop_name": "工業団地南（宇都宮市）", "stop_lat": 36.556903512681302, "stop_lon": 139.93472237858899, "zone_id": "0", "location_type": 1, "parent_station": null, "stop_code": null, "stop_desc": null, "stop_url": null, "stop_timezone": null, "wheelchair_boarding": null, "platform_code": null }, "geometry": { "type": "Point", "coordinates": [ 139.934722378588987, 36.556903512681302 ] } },
{ "type": "Feature", "properties": { "stop_id": "S0904000159", "stop_name": "下平出北", "stop_lat": 36.556782082795301, "stop_lon": 139.939583091613, "zone_id": "0", "location_type": 1, "parent_station": null, "stop_code": null, "stop_desc": null, "stop_url": null, "stop_timezone": null, "wheelchair_boarding": null, "platform_code": null }, "geometry": { "type": "Point", "coordinates": [ 139.939583091613002, 36.556782082795301 ] } },
{ "type": "Feature", "properties": { "stop_id": "S0904000160", "stop_name": "下平出", "stop_lat": 36.559047590402798, "stop_lon": 139.946735171098, "zone_id": "0", "location_type": 1, "parent_station": null, "stop_code": null, "stop_desc": null, "stop_url": null, "stop_timezone": null, "wheelchair_boarding": null, "platform_code": null }, "geometry": { "type": "Point", "coordinates": [ 139.946735171097998, 36.559047590402798 ] } },
{ "type": "Feature", "properties": { "stop_id": "S0904000161", "stop_name": "北原入口", "stop_lat": 36.562484806443898, "stop_lon": 139.95152628159499, "zone_id": "0", "location_type": 1, "parent_station": null, "stop_code": null, "stop_desc": null, "stop_url": null, "stop_timezone": null, "wheelchair_boarding": null, "platform_code": null }, "geometry": { "type": "Point", "coordinates": [ 139.951526281594994, 36.562484806443898 ] } },
{ "type": "Feature", "properties": { "stop_id": "S0904000162", "stop_name": "屋敷北", "stop_lat": 36.565687665274702, "stop_lon": 139.95590077081701, "zone_id": "0", "location_type": 1, "parent_station": null, "stop_code": null, "stop_desc": null, "stop_url": null, "stop_timezone": null, "wheelchair_boarding": null, "platform_code": null }, "geometry": { "type": "Point", "coordinates": [ 139.95590077081701, 36.565687665274702 ] } },
{ "type": "Feature", "properties": { "stop_id": "S0904000163", "stop_name": "柳田車庫", "stop_lat": 36.5687863904095, "stop_lon": 139.96152516103001, "zone_id": "0", "location_type": 1, "parent_station": null, "stop_code": null, "stop_desc": null, "stop_url": null, "stop_timezone": null, "wheelchair_boarding": null, "platform_code": null }, "geometry": { "type": "Point", "coordinates": [ 139.961525161030011, 36.5687863904095 ] } },
{ "type": "Feature", "properties": { "stop_id": "S0904000164", "stop_name": "宮の橋南", "stop_lat": 36.558829715002197, "stop_lon": 139.89607966580201, "zone_id": "0", "location_type": 1, "parent_station": null, "stop_code": null, "stop_desc": null, "stop_url": null, "stop_timezone": null, "wheelchair_boarding": null, "platform_code": null }, "geometry": { "type": "Point", "coordinates": [ 139.896079665802006, 36.558829715002197 ] } },
{ "type": "Feature", "properties": { "stop_id": "S0904000165", "stop_name": "宿郷西", "stop_lat": 36.5567899898831, "stop_lon": 139.89535065360201, "zone_id": "0", "location_type": 1, "parent_station": null, "stop_code": null, "stop_desc": null, "stop_url": null, "stop_timezone": null, "wheelchair_boarding": null, "platform_code": null }, "geometry": { "type": "Point", "coordinates": [ 139.895350653602009, 36.5567899898831 ] } },
{ "type": "Feature", "properties": { "stop_id": "S0904000166", "stop_name": "簗瀬小入口", "stop_lat": 36.554151372308397, "stop_lon": 139.89472582699301, "zone_id": "0", "location_type": 1, "parent_station": null, "stop_code": null, "stop_desc": null, "stop_url": null, "stop_timezone": null, "wheelchair_boarding": null, "platform_code": null }, "geometry": { "type": "Point", "coordinates": [ 139.89472582699301, 36.554151372308397 ] } },
{ "type": "Feature", "properties": { "stop_id": "S0904000167", "stop_name": "簗瀬西", "stop_lat": 36.550636080857203, "stop_lon": 139.89229563513101, "zone_id": "0", "location_type": 1, "parent_station": null, "stop_code": null, "stop_desc": null, "stop_url": null, "stop_timezone": null, "wheelchair_boarding": null, "platform_code": null }, "geometry": { "type": "Point", "coordinates": [ 139.892295635131006, 36.550636080857203 ] } },
{ "type": "Feature", "properties": { "stop_id": "S0904000168", "stop_name": "旭陵橋東", "stop_lat": 36.546313537387299, "stop_lon": 139.887192091348, "zone_id": "0", "location_type": 1, "parent_station": null, "stop_code": null, "stop_desc": null, "stop_url": null, "stop_timezone": null, "wheelchair_boarding": null, "platform_code": null }, "geometry": { "type": "Point", "coordinates": [ 139.887192091347998, 36.546313537387299 ] } },
{ "type": "Feature", "properties": { "stop_id": "S0904000169", "stop_name": "栃木日産前", "stop_lat": 36.541565665504898, "stop_lon": 139.88056091624, "zone_id": "0", "location_type": 1, "parent_station": null, "stop_code": null, "stop_desc": null, "stop_url": null, "stop_timezone": null, "wheelchair_boarding": null, "platform_code": null }, "geometry": { "type": "Point", "coordinates": [ 139.88056091624, 36.541565665504898 ] } },
{ "type": "Feature", "properties": { "stop_id": "S0904000170", "stop_name": "ＳＵＢＡＲＵ前", "stop_lat": 36.539447838294599, "stop_lon": 139.88066517176799, "zone_id": "0", "location_type": 1, "parent_station": null, "stop_code": null, "stop_desc": null, "stop_url": null, "stop_timezone": null, "wheelchair_boarding": null, "platform_code": null }, "geometry": { "type": "Point", "coordinates": [ 139.880665171767987, 36.539447838294599 ] } },
{ "type": "Feature", "properties": { "stop_id": "S0904000171", "stop_name": "川田入口", "stop_lat": 36.534517817338603, "stop_lon": 139.88108203082601, "zone_id": "0", "location_type": 1, "parent_station": null, "stop_code": null, "stop_desc": null, "stop_url": null, "stop_timezone": null, "wheelchair_boarding": null, "platform_code": null }, "geometry": { "type": "Point", "coordinates": [ 139.881082030826008, 36.534517817338603 ] } },
{ "type": "Feature", "properties": { "stop_id": "S0904000172", "stop_name": "陽南中学校前", "stop_lat": 36.533970926241103, "stop_lon": 139.87681157733201, "zone_id": "0", "location_type": 1, "parent_station": null, "stop_code": null, "stop_desc": null, "stop_url": null, "stop_timezone": null, "wheelchair_boarding": null, "platform_code": null }, "geometry": { "type": "Point", "coordinates": [ 139.876811577332006, 36.533970926241103 ] } },
{ "type": "Feature", "properties": { "stop_id": "S0904000173", "stop_name": "自動車学校入口", "stop_lat": 36.5335976404211, "stop_lon": 139.87327022196101, "zone_id": "0", "location_type": 1, "parent_station": null, "stop_code": null, "stop_desc": null, "stop_url": null, "stop_timezone": null, "wheelchair_boarding": null, "platform_code": null }, "geometry": { "type": "Point", "coordinates": [ 139.873270221961008, 36.5335976404211 ] } },
{ "type": "Feature", "properties": { "stop_id": "S0904000174", "stop_name": "江曽島郵便局", "stop_lat": 36.5310284501616, "stop_lon": 139.872089882734, "zone_id": "0", "location_type": 1, "parent_station": null, "stop_code": null, "stop_desc": null, "stop_url": null, "stop_timezone": null, "wheelchair_boarding": null, "platform_code": null }, "geometry": { "type": "Point", "coordinates": [ 139.872089882734002, 36.5310284501616 ] } },
{ "type": "Feature", "properties": { "stop_id": "S0904000175", "stop_name": "スーパーオータニ江曽島店", "stop_lat": 36.528737015247998, "stop_lon": 139.87132616278399, "zone_id": "0", "location_type": 1, "parent_station": null, "stop_code": null, "stop_desc": null, "stop_url": null, "stop_timezone": null, "wheelchair_boarding": null, "platform_code": null }, "geometry": { "type": "Point", "coordinates": [ 139.871326162783987, 36.528737015247998 ] } },
{ "type": "Feature", "properties": { "stop_id": "S0904000176", "stop_name": "龍泉院", "stop_lat": 36.525082866134703, "stop_lon": 139.869833399464, "zone_id": "0", "location_type": 1, "parent_station": null, "stop_code": null, "stop_desc": null, "stop_url": null, "stop_timezone": null, "wheelchair_boarding": null, "platform_code": null }, "geometry": { "type": "Point", "coordinates": [ 139.869833399464, 36.525082866134703 ] } },
{ "type": "Feature", "properties": { "stop_id": "S0904000177", "stop_name": "江曽島４丁目", "stop_lat": 36.522583115924398, "stop_lon": 139.86882665373301, "zone_id": "0", "location_type": 1, "parent_station": null, "stop_code": null, "stop_desc": null, "stop_url": null, "stop_timezone": null, "wheelchair_boarding": null, "platform_code": null }, "geometry": { "type": "Point", "coordinates": [ 139.868826653733009, 36.522583115924398 ] } },
{ "type": "Feature", "properties": { "stop_id": "S0904000178", "stop_name": "今宮１丁目", "stop_lat": 36.518764069054598, "stop_lon": 139.86820188147499, "zone_id": "0", "location_type": 1, "parent_station": null, "stop_code": null, "stop_desc": null, "stop_url": null, "stop_timezone": null, "wheelchair_boarding": null, "platform_code": null }, "geometry": { "type": "Point", "coordinates": [ 139.868201881474988, 36.518764069054598 ] } },
{ "type": "Feature", "properties": { "stop_id": "S0904000179", "stop_name": "栃木県自動車会館北", "stop_lat": 36.516290374704703, "stop_lon": 139.86816727603201, "zone_id": "0", "location_type": 1, "parent_station": null, "stop_code": null, "stop_desc": null, "stop_url": null, "stop_timezone": null, "wheelchair_boarding": null, "platform_code": null }, "geometry": { "type": "Point", "coordinates": [ 139.868167276032011, 36.516290374704703 ] } },
{ "type": "Feature", "properties": { "stop_id": "S0904000180", "stop_name": "今宮２丁目", "stop_lat": 36.515205366733397, "stop_lon": 139.86504258549601, "zone_id": "0", "location_type": 1, "parent_station": null, "stop_code": null, "stop_desc": null, "stop_url": null, "stop_timezone": null, "wheelchair_boarding": null, "platform_code": null }, "geometry": { "type": "Point", "coordinates": [ 139.865042585496013, 36.515205366733397 ] } },
{ "type": "Feature", "properties": { "stop_id": "S0904000181", "stop_name": "栃木県動物愛護センター", "stop_lat": 36.509207773465498, "stop_lon": 139.86670938990599, "zone_id": "0", "location_type": 1, "parent_station": null, "stop_code": null, "stop_desc": null, "stop_url": null, "stop_timezone": null, "wheelchair_boarding": null, "platform_code": null }, "geometry": { "type": "Point", "coordinates": [ 139.866709389905992, 36.509207773465498 ] } },
{ "type": "Feature", "properties": { "stop_id": "S0904000182", "stop_name": "総合運動公園南門", "stop_lat": 36.508704285961301, "stop_lon": 139.862751408463, "zone_id": "0", "location_type": 1, "parent_station": null, "stop_code": null, "stop_desc": null, "stop_url": null, "stop_timezone": null, "wheelchair_boarding": null, "platform_code": null }, "geometry": { "type": "Point", "coordinates": [ 139.862751408462998, 36.508704285961301 ] } },
{ "type": "Feature", "properties": { "stop_id": "S0904000183", "stop_name": "北若松原", "stop_lat": 36.506898954435798, "stop_lon": 139.86452217786601, "zone_id": "0", "location_type": 1, "parent_station": null, "stop_code": null, "stop_desc": null, "stop_url": null, "stop_timezone": null, "wheelchair_boarding": null, "platform_code": null }, "geometry": { "type": "Point", "coordinates": [ 139.864522177866007, 36.506898954435798 ] } },
{ "type": "Feature", "properties": { "stop_id": "S0904000184", "stop_name": "西原北公民館", "stop_lat": 36.504920020058201, "stop_lon": 139.86570272650101, "zone_id": "0", "location_type": 1, "parent_station": null, "stop_code": null, "stop_desc": null, "stop_url": null, "stop_timezone": null, "wheelchair_boarding": null, "platform_code": null }, "geometry": { "type": "Point", "coordinates": [ 139.865702726501013, 36.504920020058201 ] } },
{ "type": "Feature", "properties": { "stop_id": "S0904000185", "stop_name": "若松原通り中央", "stop_lat": 36.501344045196298, "stop_lon": 139.86750829676799, "zone_id": "0", "location_type": 1, "parent_station": null, "stop_code": null, "stop_desc": null, "stop_url": null, "stop_timezone": null, "wheelchair_boarding": null, "platform_code": null }, "geometry": { "type": "Point", "coordinates": [ 139.867508296767994, 36.501344045196298 ] } },
{ "type": "Feature", "properties": { "stop_id": "S0904000186", "stop_name": "若松原２丁目", "stop_lat": 36.499269629462397, "stop_lon": 139.86837637574999, "zone_id": "0", "location_type": 1, "parent_station": null, "stop_code": null, "stop_desc": null, "stop_url": null, "stop_timezone": null, "wheelchair_boarding": null, "platform_code": null }, "geometry": { "type": "Point", "coordinates": [ 139.868376375749989, 36.499269629462397 ] } },
{ "type": "Feature", "properties": { "stop_id": "S0904000187", "stop_name": "北雀宮保育園入口", "stop_lat": 36.496960886837599, "stop_lon": 139.87056380039601, "zone_id": "0", "location_type": 1, "parent_station": null, "stop_code": null, "stop_desc": null, "stop_url": null, "stop_timezone": null, "wheelchair_boarding": null, "platform_code": null }, "geometry": { "type": "Point", "coordinates": [ 139.870563800396013, 36.496960886837599 ] } },
{ "type": "Feature", "properties": { "stop_id": "S0904000188", "stop_name": "雀宮駅入口", "stop_lat": 36.494843094797901, "stop_lon": 139.872681777574, "zone_id": "0", "location_type": 1, "parent_station": null, "stop_code": null, "stop_desc": null, "stop_url": null, "stop_timezone": null, "wheelchair_boarding": null, "platform_code": null }, "geometry": { "type": "Point", "coordinates": [ 139.872681777574002, 36.494843094797901 ] } },
{ "type": "Feature", "properties": { "stop_id": "S0904000189", "stop_name": "雀宮駅", "stop_lat": 36.493905763585403, "stop_lon": 139.876605106017, "zone_id": "0", "location_type": 1, "parent_station": null, "stop_code": null, "stop_desc": null, "stop_url": null, "stop_timezone": null, "wheelchair_boarding": null, "platform_code": null }, "geometry": { "type": "Point", "coordinates": [ 139.876605106016996, 36.493905763585403 ] } },
{ "type": "Feature", "properties": { "stop_id": "S0904000190", "stop_name": "東武西口", "stop_lat": 36.559541159427397, "stop_lon": 139.879761543803, "zone_id": "0", "location_type": 1, "parent_station": null, "stop_code": null, "stop_desc": null, "stop_url": null, "stop_timezone": null, "wheelchair_boarding": null, "platform_code": null }, "geometry": { "type": "Point", "coordinates": [ 139.879761543802999, 36.559541159427397 ] } },
{ "type": "Feature", "properties": { "stop_id": "S0904000191", "stop_name": "もみじ通り", "stop_lat": 36.5560172247324, "stop_lon": 139.87941451266701, "zone_id": "0", "location_type": 1, "parent_station": null, "stop_code": null, "stop_desc": null, "stop_url": null, "stop_timezone": null, "wheelchair_boarding": null, "platform_code": null }, "geometry": { "type": "Point", "coordinates": [ 139.879414512667012, 36.5560172247324 ] } },
{ "type": "Feature", "properties": { "stop_id": "S0904000192", "stop_name": "一条", "stop_lat": 36.553222385996499, "stop_lon": 139.87948408002799, "zone_id": "0", "location_type": 1, "parent_station": null, "stop_code": null, "stop_desc": null, "stop_url": null, "stop_timezone": null, "wheelchair_boarding": null, "platform_code": null }, "geometry": { "type": "Point", "coordinates": [ 139.879484080027993, 36.553222385996499 ] } },
{ "type": "Feature", "properties": { "stop_id": "S0904000193", "stop_name": "滝澤病院前", "stop_lat": 36.550930968668197, "stop_lon": 139.87972722090299, "zone_id": "0", "location_type": 1, "parent_station": null, "stop_code": null, "stop_desc": null, "stop_url": null, "stop_timezone": null, "wheelchair_boarding": null, "platform_code": null }, "geometry": { "type": "Point", "coordinates": [ 139.879727220902993, 36.550930968668197 ] } },
{ "type": "Feature", "properties": { "stop_id": "S0904000194", "stop_name": "花房町", "stop_lat": 36.549090890740104, "stop_lon": 139.87990090231901, "zone_id": "0", "location_type": 1, "parent_station": null, "stop_code": null, "stop_desc": null, "stop_url": null, "stop_timezone": null, "wheelchair_boarding": null, "platform_code": null }, "geometry": { "type": "Point", "coordinates": [ 139.879900902319008, 36.549090890740104 ] } },
{ "type": "Feature", "properties": { "stop_id": "S0904000195", "stop_name": "日星前", "stop_lat": 36.5462266180187, "stop_lon": 139.880144069571, "zone_id": "0", "location_type": 1, "parent_station": null, "stop_code": null, "stop_desc": null, "stop_url": null, "stop_timezone": null, "wheelchair_boarding": null, "platform_code": null }, "geometry": { "type": "Point", "coordinates": [ 139.880144069571003, 36.5462266180187 ] } },
{ "type": "Feature", "properties": { "stop_id": "S0904000196", "stop_name": "不動前", "stop_lat": 36.544100114213101, "stop_lon": 139.880421922192, "zone_id": "0", "location_type": 1, "parent_station": null, "stop_code": null, "stop_desc": null, "stop_url": null, "stop_timezone": null, "wheelchair_boarding": null, "platform_code": null }, "geometry": { "type": "Point", "coordinates": [ 139.880421922191999, 36.544100114213101 ] } },
{ "type": "Feature", "properties": { "stop_id": "S0904000197", "stop_name": "県立がんセンター前", "stop_lat": 36.533180958890902, "stop_lon": 139.869867745942, "zone_id": "0", "location_type": 1, "parent_station": null, "stop_code": null, "stop_desc": null, "stop_url": null, "stop_timezone": null, "wheelchair_boarding": null, "platform_code": null }, "geometry": { "type": "Point", "coordinates": [ 139.869867745942003, 36.533180958890902 ] } },
{ "type": "Feature", "properties": { "stop_id": "S0904000198", "stop_name": "市営球場入口", "stop_lat": 36.532781637221298, "stop_lon": 139.866499988463, "zone_id": "0", "location_type": 1, "parent_station": null, "stop_code": null, "stop_desc": null, "stop_url": null, "stop_timezone": null, "wheelchair_boarding": null, "platform_code": null }, "geometry": { "type": "Point", "coordinates": [ 139.866499988463005, 36.532781637221298 ] } },
{ "type": "Feature", "properties": { "stop_id": "S0904000199", "stop_name": "陽南小学校前", "stop_lat": 36.532564611977897, "stop_lon": 139.86452099614399, "zone_id": "0", "location_type": 1, "parent_station": null, "stop_code": null, "stop_desc": null, "stop_url": null, "stop_timezone": null, "wheelchair_boarding": null, "platform_code": null }, "geometry": { "type": "Point", "coordinates": [ 139.864520996143995, 36.532564611977897 ] } },
{ "type": "Feature", "properties": { "stop_id": "S0904000200", "stop_name": "大和町", "stop_lat": 36.529899944000299, "stop_lon": 139.863236503297, "zone_id": "0", "location_type": 1, "parent_station": null, "stop_code": null, "stop_desc": null, "stop_url": null, "stop_timezone": null, "wheelchair_boarding": null, "platform_code": null }, "geometry": { "type": "Point", "coordinates": [ 139.863236503297003, 36.529899944000299 ] } },
{ "type": "Feature", "properties": { "stop_id": "S0904000201", "stop_name": "江曽島駅", "stop_lat": 36.530203687897597, "stop_lon": 139.860771416256, "zone_id": "0", "location_type": 1, "parent_station": null, "stop_code": null, "stop_desc": null, "stop_url": null, "stop_timezone": null, "wheelchair_boarding": null, "platform_code": null }, "geometry": { "type": "Point", "coordinates": [ 139.860771416256, 36.530203687897597 ] } },
{ "type": "Feature", "properties": { "stop_id": "S0904000202", "stop_name": "宮本町交番前", "stop_lat": 36.528979856221902, "stop_lon": 139.860528437233, "zone_id": "0", "location_type": 1, "parent_station": null, "stop_code": null, "stop_desc": null, "stop_url": null, "stop_timezone": null, "wheelchair_boarding": null, "platform_code": null }, "geometry": { "type": "Point", "coordinates": [ 139.860528437233, 36.528979856221902 ] } },
{ "type": "Feature", "properties": { "stop_id": "S0904000203", "stop_name": "宮本町", "stop_lat": 36.528268169241102, "stop_lon": 139.862958823718, "zone_id": "0", "location_type": 1, "parent_station": null, "stop_code": null, "stop_desc": null, "stop_url": null, "stop_timezone": null, "wheelchair_boarding": null, "platform_code": null }, "geometry": { "type": "Point", "coordinates": [ 139.862958823718003, 36.528268169241102 ] } },
{ "type": "Feature", "properties": { "stop_id": "S0904000204", "stop_name": "双葉町", "stop_lat": 36.525464638750201, "stop_lon": 139.86233400470201, "zone_id": "0", "location_type": 1, "parent_station": null, "stop_code": null, "stop_desc": null, "stop_url": null, "stop_timezone": null, "wheelchair_boarding": null, "platform_code": null }, "geometry": { "type": "Point", "coordinates": [ 139.862334004702006, 36.525464638750201 ] } },
{ "type": "Feature", "properties": { "stop_id": "S0904000205", "stop_name": "緑町", "stop_lat": 36.523259994650999, "stop_lon": 139.86125780670699, "zone_id": "0", "location_type": 1, "parent_station": null, "stop_code": null, "stop_desc": null, "stop_url": null, "stop_timezone": null, "wheelchair_boarding": null, "platform_code": null }, "geometry": { "type": "Point", "coordinates": [ 139.861257806706988, 36.523259994650999 ] } },
{ "type": "Feature", "properties": { "stop_id": "S0904000206", "stop_name": "緑２丁目", "stop_lat": 36.521072708593302, "stop_lon": 139.860112169236, "zone_id": "0", "location_type": 1, "parent_station": null, "stop_code": null, "stop_desc": null, "stop_url": null, "stop_timezone": null, "wheelchair_boarding": null, "platform_code": null }, "geometry": { "type": "Point", "coordinates": [ 139.860112169236004, 36.521072708593302 ] } },
{ "type": "Feature", "properties": { "stop_id": "S0904000207", "stop_name": "緑３丁目", "stop_lat": 36.519206572985503, "stop_lon": 139.859209552349, "zone_id": "0", "location_type": 1, "parent_station": null, "stop_code": null, "stop_desc": null, "stop_url": null, "stop_timezone": null, "wheelchair_boarding": null, "platform_code": null }, "geometry": { "type": "Point", "coordinates": [ 139.859209552349, 36.519206572985503 ] } },
{ "type": "Feature", "properties": { "stop_id": "S0904000208", "stop_name": "競馬場通り", "stop_lat": 36.517956646640499, "stop_lon": 139.85577239535701, "zone_id": "0", "location_type": 1, "parent_station": null, "stop_code": null, "stop_desc": null, "stop_url": null, "stop_timezone": null, "wheelchair_boarding": null, "platform_code": null }, "geometry": { "type": "Point", "coordinates": [ 139.855772395357008, 36.517956646640499 ] } },
{ "type": "Feature", "properties": { "stop_id": "S0904000209", "stop_name": "西川田東（江曽島）", "stop_lat": 36.5141462818234, "stop_lon": 139.85528650005401, "zone_id": "0", "location_type": 1, "parent_station": null, "stop_code": null, "stop_desc": null, "stop_url": null, "stop_timezone": null, "wheelchair_boarding": null, "platform_code": null }, "geometry": { "type": "Point", "coordinates": [ 139.855286500054007, 36.5141462818234 ] } },
{ "type": "Feature", "properties": { "stop_id": "S0904000210", "stop_name": "文星芸術大学附属中高", "stop_lat": 36.5626221560169, "stop_lon": 139.86424185749601, "zone_id": "0", "location_type": 1, "parent_station": null, "stop_code": null, "stop_desc": null, "stop_url": null, "stop_timezone": null, "wheelchair_boarding": null, "platform_code": null }, "geometry": { "type": "Point", "coordinates": [ 139.864241857496012, 36.5626221560169 ] } },
{ "type": "Feature", "properties": { "stop_id": "S0904000211", "stop_name": "睦町", "stop_lat": 36.5631776109214, "stop_lon": 139.861880916882, "zone_id": "0", "location_type": 1, "parent_station": null, "stop_code": null, "stop_desc": null, "stop_url": null, "stop_timezone": null, "wheelchair_boarding": null, "platform_code": null }, "geometry": { "type": "Point", "coordinates": [ 139.861880916882001, 36.5631776109214 ] } },
{ "type": "Feature", "properties": { "stop_id": "S0904000212", "stop_name": "三の沢", "stop_lat": 36.564002111831797, "stop_lon": 139.858235348345, "zone_id": "0", "location_type": 1, "parent_station": null, "stop_code": null, "stop_desc": null, "stop_url": null, "stop_timezone": null, "wheelchair_boarding": null, "platform_code": null }, "geometry": { "type": "Point", "coordinates": [ 139.858235348345005, 36.564002111831797 ] } },
{ "type": "Feature", "properties": { "stop_id": "S0904000213", "stop_name": "西三の沢", "stop_lat": 36.564236390211498, "stop_lon": 139.85413845557699, "zone_id": "0", "location_type": 1, "parent_station": null, "stop_code": null, "stop_desc": null, "stop_url": null, "stop_timezone": null, "wheelchair_boarding": null, "platform_code": null }, "geometry": { "type": "Point", "coordinates": [ 139.854138455576987, 36.564236390211498 ] } },
{ "type": "Feature", "properties": { "stop_id": "S0904000214", "stop_name": "鶴田橋", "stop_lat": 36.563576653651999, "stop_lon": 139.84927777851999, "zone_id": "0", "location_type": 1, "parent_station": null, "stop_code": null, "stop_desc": null, "stop_url": null, "stop_timezone": null, "wheelchair_boarding": null, "platform_code": null }, "geometry": { "type": "Point", "coordinates": [ 139.849277778519991, 36.563576653651999 ] } },
{ "type": "Feature", "properties": { "stop_id": "S0904000215", "stop_name": "羽黒下", "stop_lat": 36.562812777332702, "stop_lon": 139.84531980906601, "zone_id": "0", "location_type": 1, "parent_station": null, "stop_code": null, "stop_desc": null, "stop_url": null, "stop_timezone": null, "wheelchair_boarding": null, "platform_code": null }, "geometry": { "type": "Point", "coordinates": [ 139.845319809066012, 36.562812777332702 ] } },
{ "type": "Feature", "properties": { "stop_id": "S0904000216", "stop_name": "野尻", "stop_lat": 36.562335317188698, "stop_lon": 139.84070215898799, "zone_id": "0", "location_type": 1, "parent_station": null, "stop_code": null, "stop_desc": null, "stop_url": null, "stop_timezone": null, "wheelchair_boarding": null, "platform_code": null }, "geometry": { "type": "Point", "coordinates": [ 139.840702158987995, 36.562335317188698 ] } },
{ "type": "Feature", "properties": { "stop_id": "S0904000217", "stop_name": "姿川橋", "stop_lat": 36.561111388490801, "stop_lon": 139.83490408575901, "zone_id": "0", "location_type": 1, "parent_station": null, "stop_code": null, "stop_desc": null, "stop_url": null, "stop_timezone": null, "wheelchair_boarding": null, "platform_code": null }, "geometry": { "type": "Point", "coordinates": [ 139.834904085759007, 36.561111388490801 ] } },
{ "type": "Feature", "properties": { "stop_id": "S0904000218", "stop_name": "共和大・宇短大入口", "stop_lat": 36.562144188325398, "stop_lon": 139.83056412085401, "zone_id": "0", "location_type": 1, "parent_station": null, "stop_code": null, "stop_desc": null, "stop_url": null, "stop_timezone": null, "wheelchair_boarding": null, "platform_code": null }, "geometry": { "type": "Point", "coordinates": [ 139.830564120854007, 36.562144188325398 ] } },
{ "type": "Feature", "properties": { "stop_id": "S0904000219", "stop_name": "共和大学・宇都宮短期大学", "stop_lat": 36.559713856940803, "stop_lon": 139.828515791764, "zone_id": "0", "location_type": 1, "parent_station": null, "stop_code": null, "stop_desc": null, "stop_url": null, "stop_timezone": null, "wheelchair_boarding": null, "platform_code": null }, "geometry": { "type": "Point", "coordinates": [ 139.828515791764005, 36.559713856940803 ] } },
{ "type": "Feature", "properties": { "stop_id": "S0904000220", "stop_name": "七久保入口", "stop_lat": 36.562578116321603, "stop_lon": 139.82750879906001, "zone_id": "0", "location_type": 1, "parent_station": null, "stop_code": null, "stop_desc": null, "stop_url": null, "stop_timezone": null, "wheelchair_boarding": null, "platform_code": null }, "geometry": { "type": "Point", "coordinates": [ 139.827508799060013, 36.562578116321603 ] } },
{ "type": "Feature", "properties": { "stop_id": "S0904000221", "stop_name": "長坂坂上", "stop_lat": 36.562005156023197, "stop_lon": 139.821502379826, "zone_id": "0", "location_type": 1, "parent_station": null, "stop_code": null, "stop_desc": null, "stop_url": null, "stop_timezone": null, "wheelchair_boarding": null, "platform_code": null }, "geometry": { "type": "Point", "coordinates": [ 139.821502379826001, 36.562005156023197 ] } },
{ "type": "Feature", "properties": { "stop_id": "S0904000222", "stop_name": "共生の丘", "stop_lat": 36.5621525799178, "stop_lon": 139.81407243453299, "zone_id": "0", "location_type": 1, "parent_station": null, "stop_code": null, "stop_desc": null, "stop_url": null, "stop_timezone": null, "wheelchair_boarding": null, "platform_code": null }, "geometry": { "type": "Point", "coordinates": [ 139.814072434532989, 36.5621525799178 ] } },
{ "type": "Feature", "properties": { "stop_id": "S0904000223", "stop_name": "飯田", "stop_lat": 36.5614320677766, "stop_lon": 139.80817018010899, "zone_id": "0", "location_type": 1, "parent_station": null, "stop_code": null, "stop_desc": null, "stop_url": null, "stop_timezone": null, "wheelchair_boarding": null, "platform_code": null }, "geometry": { "type": "Point", "coordinates": [ 139.808170180108988, 36.5614320677766 ] } },
{ "type": "Feature", "properties": { "stop_id": "S0904000224", "stop_name": "白桑田", "stop_lat": 36.562239165772603, "stop_lon": 139.80202481997799, "zone_id": "0", "location_type": 1, "parent_station": null, "stop_code": null, "stop_desc": null, "stop_url": null, "stop_timezone": null, "wheelchair_boarding": null, "platform_code": null }, "geometry": { "type": "Point", "coordinates": [ 139.802024819977987, 36.562239165772603 ] } },
{ "type": "Feature", "properties": { "stop_id": "S0904000225", "stop_name": "千渡東", "stop_lat": 36.563870873828897, "stop_lon": 139.79848337229001, "zone_id": "0", "location_type": 1, "parent_station": null, "stop_code": null, "stop_desc": null, "stop_url": null, "stop_timezone": null, "wheelchair_boarding": null, "platform_code": null }, "geometry": { "type": "Point", "coordinates": [ 139.798483372290008, 36.563870873828897 ] } },
{ "type": "Feature", "properties": { "stop_id": "S0904000226", "stop_name": "飯岡橋", "stop_lat": 36.5649383660975, "stop_lon": 139.79265047421899, "zone_id": "0", "location_type": 1, "parent_station": null, "stop_code": null, "stop_desc": null, "stop_url": null, "stop_timezone": null, "wheelchair_boarding": null, "platform_code": null }, "geometry": { "type": "Point", "coordinates": [ 139.792650474218988, 36.5649383660975 ] } },
{ "type": "Feature", "properties": { "stop_id": "S0904000227", "stop_name": "千渡", "stop_lat": 36.564105067314102, "stop_lon": 139.78952577209401, "zone_id": "0", "location_type": 1, "parent_station": null, "stop_code": null, "stop_desc": null, "stop_url": null, "stop_timezone": null, "wheelchair_boarding": null, "platform_code": null }, "geometry": { "type": "Point", "coordinates": [ 139.789525772094009, 36.564105067314102 ] } },
{ "type": "Feature", "properties": { "stop_id": "S0904000228", "stop_name": "西千渡", "stop_lat": 36.563566819460497, "stop_lon": 139.783172157873, "zone_id": "0", "location_type": 1, "parent_station": null, "stop_code": null, "stop_desc": null, "stop_url": null, "stop_timezone": null, "wheelchair_boarding": null, "platform_code": null }, "geometry": { "type": "Point", "coordinates": [ 139.783172157872997, 36.563566819460497 ] } },
{ "type": "Feature", "properties": { "stop_id": "S0904000229", "stop_name": "西久保入口", "stop_lat": 36.563939971268503, "stop_lon": 139.77904053937399, "zone_id": "0", "location_type": 1, "parent_station": null, "stop_code": null, "stop_desc": null, "stop_url": null, "stop_timezone": null, "wheelchair_boarding": null, "platform_code": null }, "geometry": { "type": "Point", "coordinates": [ 139.779040539373995, 36.563939971268503 ] } },
{ "type": "Feature", "properties": { "stop_id": "S0904000230", "stop_name": "東町（鹿沼市）", "stop_lat": 36.565137686444899, "stop_lon": 139.77483944423099, "zone_id": "0", "location_type": 1, "parent_station": null, "stop_code": null, "stop_desc": null, "stop_url": null, "stop_timezone": null, "wheelchair_boarding": null, "platform_code": null }, "geometry": { "type": "Point", "coordinates": [ 139.774839444230992, 36.565137686444899 ] } },
{ "type": "Feature", "properties": { "stop_id": "S0904000231", "stop_name": "茂呂街道口", "stop_lat": 36.565962164918801, "stop_lon": 139.76990926015799, "zone_id": "0", "location_type": 1, "parent_station": null, "stop_code": null, "stop_desc": null, "stop_url": null, "stop_timezone": null, "wheelchair_boarding": null, "platform_code": null }, "geometry": { "type": "Point", "coordinates": [ 139.769909260157988, 36.565962164918801 ] } },
{ "type": "Feature", "properties": { "stop_id": "S0904000232", "stop_name": "上野町交差点", "stop_lat": 36.567437603909099, "stop_lon": 139.764319378675, "zone_id": "0", "location_type": 1, "parent_station": null, "stop_code": null, "stop_desc": null, "stop_url": null, "stop_timezone": null, "wheelchair_boarding": null, "platform_code": null }, "geometry": { "type": "Point", "coordinates": [ 139.764319378674998, 36.567437603909099 ] } },